name,level,city,county,state,country,cases,deaths,recovered,tested,active,population,populationDensity,lat,long,url,rating,tz,featureId,countryId,stateId,hospitalized,aggregate,discharged,countyId,publishedDate
"Lower Austria, Austria",state,,,Lower Austria,Austria,2496,63,1572,,861,1653419,86.11517389269162,48.221000000000004,15.7605,https://info.gesundheitsministerium.at/data/GenesenTodesFaelleBL.js,0.5098039215686274,Europe/Vienna,iso2:AT-3,iso1:AT,iso2:AT-3,,,,,
"Vorarlberg, Austria",state,,,Vorarlberg,Austria,861,13,731,,117,388711,151.87536938286314,47.218,9.884,https://info.gesundheitsministerium.at/data/GenesenTodesFaelleBL.js,0.5098039215686274,Europe/Vienna,iso2:AT-8,iso1:AT,iso2:AT-8,,,,,
"Upper Austria, Austria",state,,,Upper Austria,Austria,2211,38,1884,,289,1453733,121.5218368034171,48.117000000000004,13.871,https://info.gesundheitsministerium.at/data/GenesenTodesFaelleBL.js,0.5098039215686274,Europe/Vienna,iso2:AT-4,iso1:AT,iso2:AT-4,,,,,
"Styria, Austria",state,,,Styria,Austria,1664,98,816,,750,1231865,75.07501882670093,47.2205,14.8675,https://info.gesundheitsministerium.at/data/GenesenTodesFaelleBL.js,0.5098039215686274,Europe/Vienna,iso2:AT-6,iso1:AT,iso2:AT-6,,,,,
"Burgenland, Austria",state,,,Burgenland,Austria,308,6,200,,102,291023,73.53701200316694,47.477000000000004,16.578500000000002,https://info.gesundheitsministerium.at/data/GenesenTodesFaelleBL.js,0.5098039215686274,Europe/Vienna,iso2:AT-1,iso1:AT,iso2:AT-1,,,,,
"Carinthia, Austria",state,,,Carinthia,Austria,397,12,307,,78,560300,58.563651783113166,46.7515,13.8605,https://info.gesundheitsministerium.at/data/GenesenTodesFaelleBL.js,0.5098039215686274,Europe/Vienna,iso2:AT-2,iso1:AT,iso2:AT-2,,,,,
"Salzburg, Austria",state,,,Salzburg,Austria,1201,27,930,,244,545742,76.27192523268097,47.4925,13.035,https://info.gesundheitsministerium.at/data/GenesenTodesFaelleBL.js,0.5098039215686274,Europe/Berlin,iso2:AT-5,iso1:AT,iso2:AT-5,,,,,
"Tyrol, Austria",state,,,Tyrol,Austria,3430,88,2556,,786,739002,58.414808337056904,47.192,11.531500000000001,https://info.gesundheitsministerium.at/data/GenesenTodesFaelleBL.js,0.5098039215686274,Europe/Vienna,iso2:AT-7,iso1:AT,iso2:AT-7,,,,,
"Vienna, Austria",state,,,Vienna,Austria,2215,87,1635,,493,1888776,4654.689195028475,48.2185,16.378999999999998,https://info.gesundheitsministerium.at/data/GenesenTodesFaelleBL.js,0.5098039215686274,Europe/Vienna,iso2:AT-9,iso1:AT,iso2:AT-9,,,,,
Austria,country,,,,Austria,14783,432,10631,,3720,8809212,105.06376002852437,47.696,13.346,https://info.gesundheitsministerium.at/data/GenesenTodesFaelleBL.js,0.47058823529411764,Europe/Vienna,iso1:AT,iso1:AT,,,,,,
"Australian Capital Territory, Australia",state,,,Australian Capital Territory,Australia,104,,92,7126,,396857,167.48688915216113,-35.5225,149.079,https://www.covid19.act.gov.au,0.35294117647058826,Australia/Sydney,iso2:AU-ACT,iso1:AU,iso2:AU-ACT,,,,,
"New South Wales, Australia",state,,,New South Wales,Australia,2963,30,,168626,,7480228,9.307645567038787,-32.831,150.125,https://www.health.nsw.gov.au/_layouts/feed.aspx?xsl=1&web=/news&page=4ac47e14-04a9-4016-b501-65a23280e841&wp=baabf81e-a904-44f1-8d59-5f6d56519965&pageurl=/news/Pages/rss-nsw-health.aspx,0.35294117647058826,Australia/Sydney,iso2:AU-NSW,iso1:AU,iso2:AU-NSW,,,,,
"Northern Territory, Australia",state,,,Northern Territory,Australia,28,,12,,,245562,0.18129986343870383,-18.4555,133.4995,https://coronavirus.nt.gov.au/,0.27450980392156865,Australia/Darwin,iso2:AU-NT,iso1:AU,iso2:AU-NT,,,,,
"Queensland, Australia",state,,,Queensland,Australia,1019,6,738,,275,4703193,2.7069154023518616,-19.1605,145.774,https://www.health.qld.gov.au/news-events/doh-media-releases,0.35294117647058826,Australia/Brisbane,iso2:AU-QLD,iso1:AU,iso2:AU-QLD,,,,,
"South Australia, Australia",state,,,South Australia,Australia,435,4,369,,62,1742744,1.7645818483729319,-32.027499999999996,135.0025,https://www.sahealth.sa.gov.au/wps/wcm/connect/public+content/sa+health+internet/health+topics/health+topics+a+-+z/covid+2019/latest+updates/confirmed+and+suspected+cases+of+covid-19+in+south+australia,0.35294117647058826,Australia/Adelaide,iso2:AU-SA,iso1:AU,iso2:AU-SA,2,,,,
"Western Australia, Australia",state,,,Western Australia,Australia,545,7,435,28924,103,2474410,0.9756968123592397,-24.4405,120.9625,https://ww2.health.wa.gov.au/Articles/A_E/Coronavirus/COVID19-statistics,0.43137254901960786,Australia/Perth,iso2:AU-WA,iso1:AU,iso2:AU-WA,,,,,
"Tasmania, Australia",state,,,Tasmania,Australia,197,,,,,509965,7.461337290347817,-47.156,151.40699999999998,https://www.health.gov.au/news/health-alerts/novel-coronavirus-2019-ncov-health-alert/coronavirus-covid-19-current-situation-and-case-numbers,0.3137254901960784,Etc/GMT-10,iso2:AU-TAS,iso1:AU,iso2:AU-TAS,,state,,,
"Victoria, Australia",state,,,Victoria,Australia,1329,,,,,5926624,25.989516129670182,-36.5895,145.46949999999998,https://www.health.gov.au/news/health-alerts/novel-coronavirus-2019-ncov-health-alert/coronavirus-covid-19-current-situation-and-case-numbers,0.3137254901960784,Australia/Melbourne,iso2:AU-VIC,iso1:AU,iso2:AU-VIC,,state,,,
Australia,country,,,,Australia,6625,,,,,24511800,3.175646137713549,-32.128,120.28800000000001,https://www.health.gov.au/news/health-alerts/novel-coronavirus-2019-ncov-health-alert/coronavirus-covid-19-current-situation-and-case-numbers,0.27450980392156865,Australia/Perth,iso1:AU,iso1:AU,,,state,,,
"Brussels-Capital, Brussels-Capital, Belgium",county,,Brussels-Capital,Brussels-Capital,Belgium,4109,914,,,,1198726,7911.541659829173,50.8295,4.3629999999999995,https://epistat.wiv-isp.be/,0.5098039215686274,Europe/Brussels,iso2:BE-BRU,iso1:BE,iso2:BE-BRU,1949,,1454,iso2:BE-BRU,
"Brussels-Capital, Belgium",state,,,Brussels-Capital,Belgium,4109,914,,,,1198726,7911.541659829173,50.8295,4.3629999999999995,https://epistat.wiv-isp.be/,0.43137254901960786,Europe/Brussels,iso2:BE-BRU,iso1:BE,iso2:BE-BRU,1949,,1454,,
"Liège, Wallonia, Belgium",county,,Liège,Wallonia,Belgium,4888,,,,,1105326,286.65622472196145,50.471000000000004,5.692,https://epistat.wiv-isp.be/,0.43137254901960786,Europe/Brussels,iso2:BE-WLG,iso1:BE,iso2:BE-WAL,1356,,922,iso2:BE-WLG,
"Walloon Brabant, Wallonia, Belgium",county,,Walloon Brabant,Wallonia,Belgium,960,,,,,401106,371.05484752956056,50.667500000000004,4.5595,https://epistat.wiv-isp.be/,0.43137254901960786,Europe/Brussels,iso2:BE-WBR,iso1:BE,iso2:BE-WAL,202,,123,iso2:BE-WBR,
"Hainaut, Wallonia, Belgium",county,,Hainaut,Wallonia,Belgium,4063,,,,,1341645,355.138188710921,50.3765,3.7275,https://epistat.wiv-isp.be/,0.43137254901960786,Europe/Brussels,iso2:BE-WHT,iso1:BE,iso2:BE-WAL,1636,,987,iso2:BE-WHT,
"Namur, Wallonia, Belgium",county,,Namur,Wallonia,Belgium,1361,,,,,493073,133.52936389688716,50.214,4.840999999999999,https://epistat.wiv-isp.be/,0.43137254901960786,Europe/Brussels,iso2:BE-WNA,iso1:BE,iso2:BE-WAL,427,,172,iso2:BE-WNA,
"Luxembourg, Wallonia, Belgium",county,,Luxembourg,Wallonia,Belgium,1101,,,,,283227,63.734621092336,49.961,5.497,https://epistat.wiv-isp.be/,0.43137254901960786,Europe/Brussels,iso2:BE-WLX,iso1:BE,iso2:BE-WAL,319,,192,iso2:BE-WLX,
"Wallonia, Belgium",state,,,Wallonia,Belgium,12373,2056,,,,3624377,215.08129938241177,50.1545,4.6235,https://epistat.wiv-isp.be/,0.43137254901960786,Europe/Brussels,iso2:BE-WAL,iso1:BE,iso2:BE-WAL,3940,,2396,,
"Limburg, Flanders, Belgium",county,,Limburg,Flanders,Belgium,4716,,,,,870880,360.44959521564186,50.9975,5.4465,https://epistat.wiv-isp.be/,0.43137254901960786,Europe/Brussels,iso2:BE-VLI,iso1:BE,iso2:BE-VLG,1558,,951,iso2:BE-VLI,
"East Flanders, Flanders, Belgium",county,,East Flanders,Flanders,Belgium,4810,,,,,1505053,504.43238888001724,51.038,3.8305,https://epistat.wiv-isp.be/,0.43137254901960786,Europe/Brussels,iso2:BE-VOV,iso1:BE,iso2:BE-VLG,1587,,1103,iso2:BE-VOV,
"Flemish Brabant, Flanders, Belgium",county,,Flemish Brabant,Flanders,Belgium,3997,,,,,1138489,531.9713962439006,50.8695,4.5375,https://epistat.wiv-isp.be/,0.43137254901960786,Europe/Brussels,iso2:BE-VBR,iso1:BE,iso2:BE-VLG,782,,513,iso2:BE-VBR,
"Antwerp, Flanders, Belgium",county,,Antwerp,Flanders,Belgium,4904,,,,,1847486,642.1052412056564,51.2475,4.717499999999999,https://epistat.wiv-isp.be/,0.43137254901960786,Europe/Brussels,iso2:BE-VAN,iso1:BE,iso2:BE-VLG,1981,,1520,iso2:BE-VAN,
"West Flanders, Flanders, Belgium",county,,West Flanders,Flanders,Belgium,4509,,,,,1195796,376.3472029738276,51.0385,3.034,https://epistat.wiv-isp.be/,0.43137254901960786,Europe/Brussels,iso2:BE-VWV,iso1:BE,iso2:BE-VLG,1564,,957,iso2:BE-VWV,
"Flanders, Belgium",state,,,Flanders,Belgium,22936,2858,,,,6381859,469.44456266490425,51.097,4.228,https://epistat.wiv-isp.be/,0.43137254901960786,Europe/Brussels,iso2:BE-VLG,iso1:BE,iso2:BE-VLG,7472,,5044,,
Belgium,country,,,,Belgium,39983,5828,,161896,,11431406,373.599837562333,50.501000000000005,4.475,https://epistat.wiv-isp.be/,0.47058823529411764,Europe/Brussels,iso1:BE,iso1:BE,,13361,,8894,,
"Acre, Brazil",state,,,Acre,Brazil,176,8,,,,881935,,-9.13,-70.3015,https://covid.saude.gov.br/,0.5098039215686274,America/Rio_Branco,iso2:BR-AC,iso1:BR,iso2:BR-AC,,state,,,
"Alagoas, Brazil",state,,,Alagoas,Brazil,171,18,,,,3337357,,-9.662500000000001,-36.695499999999996,https://covid.saude.gov.br/,0.5098039215686274,America/Maceio,iso2:BR-AL,iso1:BR,iso2:BR-AL,,state,,,
"Amapá, Brazil",state,,,Amapá,Brazil,433,13,,,,845731,,1.6055000000000001,-52.378,https://covid.saude.gov.br/,0.5098039215686274,America/Belem,iso2:BR-AP,iso1:BR,iso2:BR-AP,,state,,,
"Amazonas, Brazil",state,,,Amazonas,Brazil,2160,185,,,,4144597,,-3.793,-64.94800000000001,https://covid.saude.gov.br/,0.5098039215686274,America/Manaus,iso2:BR-AM,iso1:BR,iso2:BR-AM,,state,,,
"Bahia, Brazil",state,,,Bahia,Brazil,1341,46,,,,14873064,,-13.443,-41.9845,https://covid.saude.gov.br/,0.5098039215686274,America/Bahia,iso2:BR-BA,iso1:BR,iso2:BR-BA,,state,,,
"Ceará, Brazil",state,,,Ceará,Brazil,3482,198,,,,9132078,,-5.3215,-39.337,https://covid.saude.gov.br/,0.5098039215686274,America/Fortaleza,iso2:BR-CE,iso1:BR,iso2:BR-CE,,state,,,
"Federal District, Brazil",state,,,Federal District,Brazil,872,24,,,,3015268,,-15.775,-47.796499999999995,https://covid.saude.gov.br/,0.5098039215686274,America/Sao_Paulo,iso2:BR-DF,iso1:BR,iso2:BR-DF,,state,,,
"Espírito Santo, Brazil",state,,,Espírito Santo,Brazil,1168,33,,,,4018650,,-19.602,-35.3615,https://covid.saude.gov.br/,0.5098039215686274,Etc/GMT+2,iso2:BR-ES,iso1:BR,iso2:BR-ES,,state,,,
"Goiás, Brazil",state,,,Goiás,Brazil,403,19,,,,7018354,,-15.95,-49.5785,https://covid.saude.gov.br/,0.5098039215686274,America/Sao_Paulo,iso2:BR-GO,iso1:BR,iso2:BR-GO,,state,,,
"Maranhão, Brazil",state,,,Maranhão,Brazil,1320,54,,,,7075181,,-5.6545000000000005,-45.274,https://covid.saude.gov.br/,0.5098039215686274,America/Fortaleza,iso2:BR-MA,iso1:BR,iso2:BR-MA,,state,,,
"Mato Grosso, Brazil",state,,,Mato Grosso,Brazil,181,6,,,,3484466,,-12.695,-55.918,https://covid.saude.gov.br/,0.5098039215686274,America/Cuiaba,iso2:BR-MT,iso1:BR,iso2:BR-MT,,state,,,
"Mato Grosso do Sul, Brazil",state,,,Mato Grosso do Sul,Brazil,171,5,,,,2778986,,-20.622,-54.5465,https://covid.saude.gov.br/,0.5098039215686274,America/Campo_Grande,iso2:BR-MS,iso1:BR,iso2:BR-MS,,state,,,
"Minas Gerais, Brazil",state,,,Minas Gerais,Brazil,1189,41,,,,21168791,,-18.581,-45.451,https://covid.saude.gov.br/,0.5098039215686274,America/Sao_Paulo,iso2:BR-MG,iso1:BR,iso2:BR-MG,,state,,,
"Paraná, Brazil",state,,,Paraná,Brazil,1007,51,,,,11433957,,-24.615,-51.322,https://covid.saude.gov.br/,0.5098039215686274,America/Sao_Paulo,iso2:BR-PR,iso1:BR,iso2:BR-PR,,state,,,
"Paraíba, Brazil",state,,,Paraíba,Brazil,245,32,,,,4018127,,-7.1655,-36.78,https://covid.saude.gov.br/,0.5098039215686274,America/Fortaleza,iso2:BR-PB,iso1:BR,iso2:BR-PB,,state,,,
"Pará, Brazil",state,,,Pará,Brazil,902,35,,,,11433957,,-3.624,-52.4825,https://covid.saude.gov.br/,0.5098039215686274,America/Santarem,iso2:BR-PA,iso1:BR,iso2:BR-PA,,state,,,
"Pernambuco, Brazil",state,,,Pernambuco,Brazil,2690,234,,,,9557071,,-4.282500000000001,-35.3515,https://covid.saude.gov.br/,0.5098039215686274,Etc/GMT+2,iso2:BR-PE,iso1:BR,iso2:BR-PE,,state,,,
"Piauí, Brazil",state,,,Piauí,Brazil,158,12,,,,3273227,,-6.836500000000001,-43.182500000000005,https://covid.saude.gov.br/,0.5098039215686274,America/Fortaleza,iso2:BR-PI,iso1:BR,iso2:BR-PI,,state,,,
"Rio Grande do Norte, Brazil",state,,,Rio Grande do Norte,Brazil,595,27,,,,3506853,,-5.4155,-36.199,https://covid.saude.gov.br/,0.5098039215686274,America/Fortaleza,iso2:BR-RN,iso1:BR,iso2:BR-RN,,state,,,
"Rio Grande do Sul, Brazil",state,,,Rio Grande do Sul,Brazil,889,27,,,,11377239,,-30.4135,-53.670500000000004,https://covid.saude.gov.br/,0.5098039215686274,America/Sao_Paulo,iso2:BR-RS,iso1:BR,iso2:BR-RS,,state,,,
"Rio de Janeiro, Brazil",state,,,Rio de Janeiro,Brazil,4899,422,,,,17264943,,-22.0655,-42.923,https://covid.saude.gov.br/,0.5098039215686274,America/Sao_Paulo,iso2:BR-RJ,iso1:BR,iso2:BR-RJ,,state,,,
"Rondônia, Brazil",state,,,Rondônia,Brazil,160,4,,,,1777225,,-10.83,-63.29,https://covid.saude.gov.br/,0.5098039215686274,America/Porto_Velho,iso2:BR-RO,iso1:BR,iso2:BR-RO,,state,,,
"Roraima, Brazil",state,,,Roraima,Brazil,244,3,,,,60576,,1.8375,-61.852500000000006,https://covid.saude.gov.br/,0.5098039215686274,America/Boa_Vista,iso2:BR-RR,iso1:BR,iso2:BR-RR,,state,,,
"Santa Catarina, Brazil",state,,,Santa Catarina,Brazil,1025,35,,,,7164788,,-27.6405,-51.085,https://covid.saude.gov.br/,0.5098039215686274,America/Sao_Paulo,iso2:BR-SC,iso1:BR,iso2:BR-SC,,state,,,
"Sergipe, Brazil",state,,,Sergipe,Brazil,86,5,,,,2298696,,-10.5415,-37.318,https://covid.saude.gov.br/,0.5098039215686274,America/Maceio,iso2:BR-SE,iso1:BR,iso2:BR-SE,,state,,,
"São Paulo, Brazil",state,,,São Paulo,Brazil,14580,1037,,,,45919049,,-22.57,-48.634,https://covid.saude.gov.br/,0.5098039215686274,America/Sao_Paulo,iso2:BR-SP,iso1:BR,iso2:BR-SP,,state,,,
"Tocantins, Brazil",state,,,Tocantins,Brazil,34,1,,,,1572866,,-9.319,-48.2195,https://covid.saude.gov.br/,0.5098039215686274,America/Araguaina,iso2:BR-TO,iso1:BR,iso2:BR-TO,,state,,,
Brazil,country,,,,Brazil,40581,2575,,,,208494900,24.366254980308863,-14.2375,-51.4155,https://covid.saude.gov.br/,0.47058823529411764,America/Cuiaba,iso1:BR,iso1:BR,,,state,,,
"British Columbia, Canada",state,,,British Columbia,Canada,1699,86,,,,4841078,5.1211447351312485,54.150000000000006,-126.56,https://health-infobase.canada.ca/src/data/covidLive/covid19.csv,0.4117647058823529,America/Vancouver,iso2:CA-BC,iso1:CA,iso2:CA-BC,,state,,,
"Alberta, Canada",state,,,Alberta,Canada,2908,59,,,,4306039,6.508808220798176,54.4985,-115.003,https://health-infobase.canada.ca/src/data/covidLive/covid19.csv,0.4117647058823529,America/Edmonton,iso2:CA-AB,iso1:CA,iso2:CA-AB,,state,,,
"Saskatchewan, Canada",state,,,Saskatchewan,Canada,316,4,,,,1168057,1.7942466354660291,54.4995,-105.684,https://health-infobase.canada.ca/src/data/covidLive/covid19.csv,0.4117647058823529,America/Regina,iso2:CA-SK,iso1:CA,iso2:CA-SK,,state,,,
"Manitoba, Canada",state,,,Manitoba,Canada,246,6,,,,1343371,2.069321212153181,54.499,-95.4995,https://health-infobase.canada.ca/src/data/covidLive/covid19.csv,0.4117647058823529,America/Winnipeg,iso2:CA-MB,iso1:CA,iso2:CA-MB,,state,,,
"Ontario, Canada",state,,,Ontario,Canada,11184,584,,,,14279196,14.46094145134689,49.2705,-84.737,https://health-infobase.canada.ca/src/data/covidLive/covid19.csv,0.4117647058823529,America/Toronto,iso2:CA-ON,iso1:CA,iso2:CA-ON,,state,,,
"Quebec, Canada",state,,,Quebec,Canada,19319,939,,,,8484965,5.636831217370655,53.7855,-68.423,https://health-infobase.canada.ca/src/data/covidLive/covid19.csv,0.4117647058823529,America/Toronto,iso2:CA-QC,iso1:CA,iso2:CA-QC,,state,,,
"Newfoundland and Labrador, Canada",state,,,Newfoundland and Labrador,Canada,257,3,,,,528430,1.3072251356161515,53.4945,-60.219,https://health-infobase.canada.ca/src/data/covidLive/covid19.csv,0.4117647058823529,America/Goose_Bay,iso2:CA-NL,iso1:CA,iso2:CA-NL,,state,,,
"New Brunswick, Canada",state,,,New Brunswick,Canada,118,0,,,,760868,10.430296262399166,46.3245,-66.411,https://health-infobase.canada.ca/src/data/covidLive/covid19.csv,0.4117647058823529,America/Moncton,iso2:CA-NB,iso1:CA,iso2:CA-NB,,state,,,
"Nova Scotia, Canada",state,,,Nova Scotia,Canada,721,9,,,,957600,17.313791252891534,45.307,-63.025999999999996,https://health-infobase.canada.ca/src/data/covidLive/covid19.csv,0.4117647058823529,America/Halifax,iso2:CA-NS,iso1:CA,iso2:CA-NS,,state,,,
"Prince Edward Island, Canada",state,,,Prince Edward Island,Canada,26,0,,,,152784,26.535828339757867,46.507999999999996,-63.191500000000005,https://health-infobase.canada.ca/src/data/covidLive/covid19.csv,0.4117647058823529,America/Halifax,iso2:CA-PE,iso1:CA,iso2:CA-PE,,state,,,
"Yukon, Canada",state,,,Yukon,Canada,11,0,,,,38669,0.08028912396734325,64.8205,-132.4065,https://health-infobase.canada.ca/src/data/covidLive/covid19.csv,0.4117647058823529,America/Yellowknife,iso2:CA-YT,iso1:CA,iso2:CA-YT,,state,,,
"Northwest Territories, Canada",state,,,Northwest Territories,Canada,5,0,,,,44718,0.033309922182710824,69.4,-119.224,https://health-infobase.canada.ca/src/data/covidLive/covid19.csv,0.4117647058823529,America/Cambridge_Bay,iso2:CA-NT,iso1:CA,iso2:CA-NT,,state,,,
"Nunavut, Canada",state,,,Nunavut,Canada,0,0,,,,38243,0.018390732537514762,67.15299999999999,-90.887,https://health-infobase.canada.ca/src/data/covidLive/covid19.csv,0.4117647058823529,America/Cambridge_Bay,iso2:CA-NU,iso1:CA,iso2:CA-NU,,state,,,
Canada,country,,,,Canada,36823,1690,,,,36708083,3.7299350784045093,62.414,-96.81200000000001,https://health-infobase.canada.ca/src/data/covidLive/covid19.csv,0.37254901960784315,America/Rankin_Inlet,iso1:CA,iso1:CA,,,state,,,
"Aargau, Switzerland",state,,,Aargau,Switzerland,1012,28,,,,678207,485.9534778108368,47.381,8.084,https://github.com/daenuprobst/covid19-cases-switzerland/,0.43137254901960786,Europe/Zurich,iso2:CH-AG,iso1:CH,iso2:CH-AG,45,,640,,
"Appenzell Innerrhoden, Switzerland",state,,,Appenzell Innerrhoden,Switzerland,24,,,,,16145,96.42654768314024,47.338499999999996,9.464500000000001,https://github.com/daenuprobst/covid19-cases-switzerland/,0.35294117647058826,Europe/Zurich,iso2:CH-AI,iso1:CH,iso2:CH-AI,1,,,,
"Appenzell Ausserrhoden, Switzerland",state,,,Appenzell Ausserrhoden,Switzerland,86,3,,,,55234,227.8125547827627,47.356,9.4085,https://github.com/daenuprobst/covid19-cases-switzerland/,0.43137254901960786,Europe/Zurich,iso2:CH-AR,iso1:CH,iso2:CH-AR,6,,,,
"Bern, Switzerland",state,,,Bern,Switzerland,1613,73,,,,1034977,173.62093930878967,46.837,7.657,https://github.com/daenuprobst/covid19-cases-switzerland/,0.43137254901960786,Europe/Zurich,iso2:CH-BE,iso1:CH,iso2:CH-BE,71,,,,
"Basel-Landschaft, Switzerland",state,,,Basel-Landschaft,Switzerland,806,25,,,,288132,554.7885383114274,47.451499999999996,7.6445,https://github.com/daenuprobst/covid19-cases-switzerland/,0.43137254901960786,Europe/Zurich,iso2:CH-BL,iso1:CH,iso2:CH-BL,40,,664,,
"Basel-City, Switzerland",state,,,Basel-City,Switzerland,933,42,,,,194766,5061.964771480392,47.558,7.619,https://github.com/daenuprobst/covid19-cases-switzerland/,0.43137254901960786,Europe/Zurich,iso2:CH-BS,iso1:CH,iso2:CH-BS,68,,770,,
"Fribourg, Switzerland",state,,,Fribourg,Switzerland,989,72,,,,318714,189.69246488759015,46.722,7.0595,https://github.com/daenuprobst/covid19-cases-switzerland/,0.43137254901960786,Europe/Zurich,iso2:CH-FR,iso1:CH,iso2:CH-FR,62,,113,,
"Geneva, Switzerland",state,,,Geneva,Switzerland,4671,195,,,,499480,1988.083315812577,46.2425,6.133,https://github.com/daenuprobst/covid19-cases-switzerland/,0.43137254901960786,Europe/Zurich,iso2:CH-GE,iso1:CH,iso2:CH-GE,321,,561,,
"Glarus, Switzerland",state,,,Glarus,Switzerland,114,5,,,,40403,59.17965154296929,46.985,9.061,https://github.com/daenuprobst/covid19-cases-switzerland/,0.43137254901960786,Europe/Zurich,iso2:CH-GL,iso1:CH,iso2:CH-GL,5,,,,
"Grisons, Switzerland",state,,,Grisons,Switzerland,769,40,,,,198379,27.877014456910036,46.6175,9.5715,https://github.com/daenuprobst/covid19-cases-switzerland/,0.43137254901960786,Europe/Zurich,iso2:CH-GR,iso1:CH,iso2:CH-GR,28,,,,
"Jura, Switzerland",state,,,Jura,Switzerland,192,2,,,,73419,86.34318500286935,47.327,7.2055,https://github.com/daenuprobst/covid19-cases-switzerland/,0.43137254901960786,Europe/Zurich,iso2:CH-JU,iso1:CH,iso2:CH-JU,16,,,,
"Luzern, Switzerland",state,,,Luzern,Switzerland,633,15,,,,409557,271.42013379975964,47.0305,8.176,https://github.com/daenuprobst/covid19-cases-switzerland/,0.43137254901960786,Europe/Zurich,iso2:CH-LU,iso1:CH,iso2:CH-LU,33,,,,
"Neuchâtel, Switzerland",state,,,Neuchâtel,Switzerland,638,50,,,,176850,218.44168675101758,47.0065,6.76,https://github.com/daenuprobst/covid19-cases-switzerland/,0.43137254901960786,Europe/Zurich,iso2:CH-NE,iso1:CH,iso2:CH-NE,44,,,,
"Nidwalden, Switzerland",state,,,Nidwalden,Switzerland,108,3,,,,43223,152.10925201880778,46.896,8.399999999999999,https://github.com/daenuprobst/covid19-cases-switzerland/,0.43137254901960786,Europe/Zurich,iso2:CH-NW,iso1:CH,iso2:CH-NW,4,,,,
"Obwalden, Switzerland",state,,,Obwalden,Switzerland,67,,,,,37841,78.78013134741742,46.863,8.2665,https://github.com/daenuprobst/covid19-cases-switzerland/,0.35294117647058826,Europe/Zurich,iso2:CH-OW,iso1:CH,iso2:CH-OW,1,,1,,
"Sankt Gallen, Switzerland",state,,,Sankt Gallen,Switzerland,711,27,,,,507697,254.78014930396012,47.2025,9.2385,https://github.com/daenuprobst/covid19-cases-switzerland/,0.43137254901960786,Europe/Zurich,iso2:CH-SG,iso1:CH,iso2:CH-SG,42,,159,,
"Schaffhausen, Switzerland",state,,,Schaffhausen,Switzerland,63,1,,,,81991,277.89968404863316,47.677,8.641,https://github.com/daenuprobst/covid19-cases-switzerland/,0.43137254901960786,Europe/Zurich,iso2:CH-SH,iso1:CH,iso2:CH-SH,6,,,,
"Solothurn, Switzerland",state,,,Solothurn,Switzerland,355,11,,,,273194,359.79746834740246,47.2975,7.6834999999999996,https://github.com/daenuprobst/covid19-cases-switzerland/,0.43137254901960786,Europe/Zurich,iso2:CH-SO,iso1:CH,iso2:CH-SO,19,,,,
"Schwyz, Switzerland",state,,,Schwyz,Switzerland,272,15,,,,159165,176.54784189781952,47.052499999999995,8.697,https://github.com/daenuprobst/covid19-cases-switzerland/,0.43137254901960786,Europe/Zurich,iso2:CH-SZ,iso1:CH,iso2:CH-SZ,1,,180,,
"Thurgau, Switzerland",state,,,Thurgau,Switzerland,335,13,,,,276472,319.92322176676555,47.534499999999994,9.073,https://github.com/daenuprobst/covid19-cases-switzerland/,0.43137254901960786,Europe/Zurich,iso2:CH-TG,iso1:CH,iso2:CH-TG,24,,,,
"Ticino, Switzerland",state,,,Ticino,Switzerland,3058,288,,,,353343,126.2182747388837,46.2265,8.772,https://github.com/daenuprobst/covid19-cases-switzerland/,0.43137254901960786,Europe/Zurich,iso2:CH-TI,iso1:CH,iso2:CH-TI,237,,616,,
"Uri, Switzerland",state,,,Uri,Switzerland,78,5,,,,36433,33.70474175427766,46.759,8.678,https://github.com/daenuprobst/covid19-cases-switzerland/,0.43137254901960786,Europe/Zurich,iso2:CH-UR,iso1:CH,iso2:CH-UR,2,,69,,
"Vaud, Switzerland",state,,,Vaud,Switzerland,4966,298,,,,799145,273.9454839774156,46.587,6.6545000000000005,https://github.com/daenuprobst/covid19-cases-switzerland/,0.43137254901960786,Europe/Zurich,iso2:CH-VD,iso1:CH,iso2:CH-VD,249,,225,,
"Valais/Wallis, Switzerland",state,,,Valais/Wallis,Switzerland,1771,108,,,,343955,65.93049161702207,46.256,7.624499999999999,https://github.com/daenuprobst/covid19-cases-switzerland/,0.43137254901960786,Europe/Zurich,iso2:CH-VS,iso1:CH,iso2:CH-VS,79,,206,,
"Zug, Switzerland",state,,,Zug,Switzerland,175,7,,,,126837,525.2184574012,47.164500000000004,8.5435,https://github.com/daenuprobst/covid19-cases-switzerland/,0.43137254901960786,Europe/Zurich,iso2:CH-ZG,iso1:CH,iso2:CH-ZG,11,,99,,
"Zurich, Switzerland",state,,,Zurich,Switzerland,3254,103,,,,1520968,874.5594612083258,47.427499999999995,8.6715,https://github.com/daenuprobst/covid19-cases-switzerland/,0.43137254901960786,Europe/Zurich,iso2:CH-ZH,iso1:CH,iso2:CH-ZH,121,,,,
Switzerland,country,,,,Switzerland,27693,1429,,,,8466017,207.68400188612026,46.811499999999995,8.228000000000002,https://github.com/daenuprobst/covid19-cases-switzerland/,0.39215686274509803,Europe/Zurich,iso1:CH,iso1:CH,,1536,,4303,,
Cyprus,country,,,,Cyprus,772,12,83,35656,677,1141166,126.43100637080508,35.1695,33.441,https://data.gov.cy/api/3/action/package_show?id=f6c70a36-daaf-42c2-80d6-f99a329fdd0f,0.5490196078431373,Asia/Famagusta,iso1:CY,iso1:CY,,,,,,
"Hlavní město Praha, Czechia",state,,,Hlavní město Praha,Czechia,1618,,,,,1308632,2655.7145472047796,50.062,14.4785,https://onemocneni-aktualne.mzcr.cz/,0.35294117647058826,Europe/Prague,iso2:CZ-10,iso1:CZ,iso2:CZ-10,,,,,
"Středočeský kraj, Czechia",state,,,Středočeský kraj,Czechia,807,,,,,1369332,125.10711638966657,50.058,14.4665,https://onemocneni-aktualne.mzcr.cz/,0.35294117647058826,Europe/Prague,iso2:CZ-20,iso1:CZ,iso2:CZ-20,,,,,
"Královéhradecký kraj, Czechia",state,,,Královéhradecký kraj,Czechia,176,,,,,551021,115.59824846422646,50.409000000000006,15.841999999999999,https://onemocneni-aktualne.mzcr.cz/,0.35294117647058826,Europe/Prague,iso2:CZ-52,iso1:CZ,iso2:CZ-52,,,,,
"Jihočeský kraj, Czechia",state,,,Jihočeský kraj,Czechia,160,,,,,642133,63.930268200018304,49.085499999999996,14.573,https://onemocneni-aktualne.mzcr.cz/,0.35294117647058826,Europe/Prague,iso2:CZ-31,iso1:CZ,iso2:CZ-31,,,,,
"Plzeňský kraj, Czechia",state,,,Plzeňský kraj,Czechia,528,,,,,584672,76.59621595994561,49.522999999999996,13.1205,https://onemocneni-aktualne.mzcr.cz/,0.35294117647058826,Europe/Prague,iso2:CZ-32,iso1:CZ,iso2:CZ-32,,,,,
"Karlovarský kraj, Czechia",state,,,Karlovarský kraj,Czechia,248,,,,,294896,89.13522459424773,50.176500000000004,12.7,https://onemocneni-aktualne.mzcr.cz/,0.35294117647058826,Europe/Prague,iso2:CZ-41,iso1:CZ,iso2:CZ-41,,,,,
"Ústecký kraj, Czechia",state,,,Ústecký kraj,Czechia,435,,,,,820789,154.5223228780025,50.5665,13.799,https://onemocneni-aktualne.mzcr.cz/,0.35294117647058826,Europe/Prague,iso2:CZ-42,iso1:CZ,iso2:CZ-42,,,,,
"Liberecký kraj, Czechia",state,,,Liberecký kraj,Czechia,191,,,,,442356,140.5416136070536,50.7515,14.9915,https://onemocneni-aktualne.mzcr.cz/,0.35294117647058826,Europe/Prague,iso2:CZ-51,iso1:CZ,iso2:CZ-51,,,,,
"Pardubický kraj, Czechia",state,,,Pardubický kraj,Czechia,251,,,,,520316,115.16321151440943,49.888999999999996,16.113,https://onemocneni-aktualne.mzcr.cz/,0.35294117647058826,Europe/Prague,iso2:CZ-53,iso1:CZ,iso2:CZ-53,,,,,
"Kraj Vysočina, Czechia",state,,,Kraj Vysočina,Czechia,163,,,,,509274,75.13924040773088,49.4015,15.652999999999999,https://onemocneni-aktualne.mzcr.cz/,0.35294117647058826,Europe/Prague,iso2:CZ-63,iso1:CZ,iso2:CZ-63,,,,,
"Jihomoravský kraj, Czechia",state,,,Jihomoravský kraj,Czechia,387,,,,,1187667,165.47232192801377,49.1225,16.5945,https://onemocneni-aktualne.mzcr.cz/,0.35294117647058826,Europe/Prague,iso2:CZ-64,iso1:CZ,iso2:CZ-64,,,,,
"Olomouc Region, Czechia",state,,,Olomouc Region,Czechia,619,,,,,632492,119.8981538104448,49.861999999999995,17.314500000000002,https://onemocneni-aktualne.mzcr.cz/,0.35294117647058826,Europe/Prague,iso2:CZ-71,iso1:CZ,iso2:CZ-71,,,,,
"Moravskoslezský kraj, Czechia",state,,,Moravskoslezský kraj,Czechia,815,,,,,1203299,221.1469472323392,49.861000000000004,17.999,https://onemocneni-aktualne.mzcr.cz/,0.35294117647058826,Europe/Prague,iso2:CZ-80,iso1:CZ,iso2:CZ-80,,,,,
"Zlínský kraj, Czechia",state,,,Zlínský kraj,Czechia,285,,,,,582921,147.02944101690855,49.196,17.7695,https://onemocneni-aktualne.mzcr.cz/,0.35294117647058826,Europe/Prague,iso2:CZ-72,iso1:CZ,iso2:CZ-72,,,,,
Czechia,country,,,,Czechia,6683,,,172123,,10649800,135.18632469357428,49.805,15.474499999999999,https://onemocneni-aktualne.mzcr.cz/,0.39215686274509803,Europe/Prague,iso1:CZ,iso1:CZ,,,,,,
"Brandenburg, Germany",state,,,Brandenburg,Germany,2402,93,,,,2449193,82.67043730978945,52.4565,13.016,https://raw.githubusercontent.com/jgehrcke/covid-19-germany-gae/master/data.csv,0.43137254901960786,Europe/Berlin,iso2:DE-BB,iso1:DE,iso2:DE-BB,,,,,
"Berlin, Germany",state,,,Berlin,Germany,5225,94,,,,3644826,4159.449870822034,52.4985,13.4185,https://raw.githubusercontent.com/jgehrcke/covid-19-germany-gae/master/data.csv,0.43137254901960786,Europe/Berlin,iso2:DE-BE,iso1:DE,iso2:DE-BE,,,,,
"Baden-Württemberg, Germany",state,,,Baden-Württemberg,Germany,29575,1043,,,,10879618,304.5241514050538,48.6635,9.006,https://raw.githubusercontent.com/jgehrcke/covid-19-germany-gae/master/data.csv,0.43137254901960786,Europe/Berlin,iso2:DE-BW,iso1:DE,iso2:DE-BW,,,,,
"Bavaria, Germany",state,,,Bavaria,Germany,38301,1373,,,,12930751,183.44821350157707,48.9165,11.4085,https://raw.githubusercontent.com/jgehrcke/covid-19-germany-gae/master/data.csv,0.43137254901960786,Europe/Berlin,iso2:DE-BY,iso1:DE,iso2:DE-BY,,,,,
"Bremen, Germany",state,,,Bremen,Germany,603,25,,,,661000,1753.5599056483888,53.3115,8.733,https://raw.githubusercontent.com/jgehrcke/covid-19-germany-gae/master/data.csv,0.43137254901960786,Europe/Berlin,iso2:DE-HB,iso1:DE,iso2:DE-HB,,,,,
"Hesse, Germany",state,,,Hesse,Germany,7178,238,,,,6265809,297.15552233898524,50.5245,9.008000000000001,https://raw.githubusercontent.com/jgehrcke/covid-19-germany-gae/master/data.csv,0.43137254901960786,Europe/Berlin,iso2:DE-HE,iso1:DE,iso2:DE-HE,,,,,
"Hamburg, Germany",state,,,Hamburg,Germany,4347,91,,,,1841179,2493.5652334000692,53.6755,9.3705,https://raw.githubusercontent.com/jgehrcke/covid-19-germany-gae/master/data.csv,0.43137254901960786,Europe/Berlin,iso2:DE-HH,iso1:DE,iso2:DE-HH,,,,,
"Mecklenburg-Vorpommern, Germany",state,,,Mecklenburg-Vorpommern,Germany,652,16,,,,1609675,69.83051102237341,53.8975,12.5035,https://raw.githubusercontent.com/jgehrcke/covid-19-germany-gae/master/data.csv,0.43137254901960786,Europe/Berlin,iso2:DE-MV,iso1:DE,iso2:DE-MV,,,,,
"Lower Saxony, Germany",state,,,Lower Saxony,Germany,9444,330,,,,7982448,167.99251417387518,52.593500000000006,9.127,https://raw.githubusercontent.com/jgehrcke/covid-19-germany-gae/master/data.csv,0.43137254901960786,Europe/Berlin,iso2:DE-NI,iso1:DE,iso2:DE-NI,,,,,
"North Rhine-Westphalia, Germany",state,,,North Rhine-Westphalia,Germany,30028,913,,,,17932651,526.9029627273594,51.427,7.6635,https://raw.githubusercontent.com/jgehrcke/covid-19-germany-gae/master/data.csv,0.43137254901960786,Europe/Berlin,iso2:DE-NW,iso1:DE,iso2:DE-NW,,,,,
"Rhineland-Palatinate, Germany",state,,,Rhineland-Palatinate,Germany,5668,113,,,,4011582,202.28125428252946,49.954,7.3065,https://raw.githubusercontent.com/jgehrcke/covid-19-germany-gae/master/data.csv,0.43137254901960786,Europe/Berlin,iso2:DE-RP,iso1:DE,iso2:DE-RP,,,,,
"Schleswig-Holstein, Germany",state,,,Schleswig-Holstein,Germany,2412,71,,,,2896712,184.89556720876928,54.202,9.5865,https://raw.githubusercontent.com/jgehrcke/covid-19-germany-gae/master/data.csv,0.43137254901960786,Europe/Berlin,iso2:DE-SH,iso1:DE,iso2:DE-SH,,,,,
"Saarland, Germany",state,,,Saarland,Germany,2339,100,,,,995597,385.3513993433725,49.3745,6.8795,https://raw.githubusercontent.com/jgehrcke/covid-19-germany-gae/master/data.csv,0.43137254901960786,Europe/Berlin,iso2:DE-SL,iso1:DE,iso2:DE-SL,,,,,
"Saxony, Germany",state,,,Saxony,Germany,4302,113,,,,4077937,221.1301601354123,50.9285,13.455,https://raw.githubusercontent.com/jgehrcke/covid-19-germany-gae/master/data.csv,0.43137254901960786,Europe/Berlin,iso2:DE-SN,iso1:DE,iso2:DE-SN,,,,,
"Saxony-Anhalt, Germany",state,,,Saxony-Anhalt,Germany,1401,32,,,,2245470,109.45388123439457,51.987,11.873999999999999,https://raw.githubusercontent.com/jgehrcke/covid-19-germany-gae/master/data.csv,0.43137254901960786,Europe/Berlin,iso2:DE-ST,iso1:DE,iso2:DE-ST,,,,,
"Thuringia, Germany",state,,,Thuringia,Germany,1804,55,,,,2143145,132.4717992872207,50.927,11.2665,https://raw.githubusercontent.com/jgehrcke/covid-19-germany-gae/master/data.csv,0.43137254901960786,Europe/Berlin,iso2:DE-TH,iso1:DE,iso2:DE-TH,,,,,
"Tartu maakond, Estonia",state,,,Tartu maakond,Estonia,95,,,3959,,151122,37.40761835056606,58.4075,26.8035,https://opendata.digilugu.ee/opendata_covid19_test_results.csv,0.43137254901960786,Europe/Tallinn,iso2:EE-78,iso1:EE,iso2:EE-78,,,,,
"Harju maakond, Estonia",state,,,Harju maakond,Estonia,526,,,16467,,589610,137.60686193608797,59.347,24.843,https://opendata.digilugu.ee/opendata_covid19_test_results.csv,0.43137254901960786,Europe/Tallinn,iso2:EE-37,iso1:EE,iso2:EE-37,,,,,
"Viljandi maakond, Estonia",state,,,Viljandi maakond,Estonia,22,,,1722,,46782,13.032480001134381,58.323,25.583,https://opendata.digilugu.ee/opendata_covid19_test_results.csv,0.43137254901960786,Europe/Tallinn,iso2:EE-84,iso1:EE,iso2:EE-84,,,,,
"Valga maakond, Estonia",state,,,Valga maakond,Estonia,7,,,933,,28669,15.079009569950305,57.8695,26.1025,https://opendata.digilugu.ee/opendata_covid19_test_results.csv,0.43137254901960786,Europe/Tallinn,iso2:EE-82,iso1:EE,iso2:EE-82,,,,,
"Võru maakond, Estonia",state,,,Võru maakond,Estonia,81,,,1665,,36133,12.960631598016127,57.8155,27.1045,https://opendata.digilugu.ee/opendata_covid19_test_results.csv,0.43137254901960786,Europe/Tallinn,iso2:EE-86,iso1:EE,iso2:EE-86,,,,,
"Pärnu maakond, Estonia",state,,,Pärnu maakond,Estonia,92,,,2658,,85756,15.840736054966795,58.317,24.354,https://opendata.digilugu.ee/opendata_covid19_test_results.csv,0.43137254901960786,Europe/Tallinn,iso2:EE-67,iso1:EE,iso2:EE-67,,,,,
"Jõgeva maakond, Estonia",state,,,Jõgeva maakond,Estonia,6,,,1034,,29119,10.120221911590178,58.7695,26.5535,https://opendata.digilugu.ee/opendata_covid19_test_results.csv,0.43137254901960786,Europe/Tallinn,iso2:EE-49,iso1:EE,iso2:EE-49,,,,,
"Lääne maakond, Estonia",state,,,Lääne maakond,Estonia,4,,,547,,20646,11.580185993928808,59.010000000000005,23.637,https://opendata.digilugu.ee/opendata_covid19_test_results.csv,0.43137254901960786,Europe/Tallinn,iso2:EE-57,iso1:EE,iso2:EE-57,,,,,
"Saare maakond, Estonia",state,,,Saare maakond,Estonia,520,,,3079,,33231,11.472399722810328,58.233000000000004,22.6025,https://opendata.digilugu.ee/opendata_covid19_test_results.csv,0.43137254901960786,Europe/Tallinn,iso2:EE-74,iso1:EE,iso2:EE-74,,,,,
"Lääne-Viru maakond, Estonia",state,,,Lääne-Viru maakond,Estonia,16,,,1254,,59791,16.195049476152743,59.35,26.2485,https://opendata.digilugu.ee/opendata_covid19_test_results.csv,0.43137254901960786,Europe/Tallinn,iso2:EE-59,iso1:EE,iso2:EE-59,,,,,
"Põlva maakond, Estonia",state,,,Põlva maakond,Estonia,7,,,853,,25290,12.858483409576596,58.1695,27.085,https://opendata.digilugu.ee/opendata_covid19_test_results.csv,0.43137254901960786,Europe/Tallinn,iso2:EE-65,iso1:EE,iso2:EE-65,,,,,
"Ida-Viru maakond, Estonia",state,,,Ida-Viru maakond,Estonia,95,,,3889,,138266,40.21608251646996,59.1295,27.456000000000003,https://opendata.digilugu.ee/opendata_covid19_test_results.csv,0.43137254901960786,Europe/Tallinn,iso2:EE-44,iso1:EE,iso2:EE-44,,,,,
"Rapla maakond, Estonia",state,,,Rapla maakond,Estonia,22,,,996,,33299,12.07879497572146,58.9415,24.7025,https://opendata.digilugu.ee/opendata_covid19_test_results.csv,0.43137254901960786,Europe/Tallinn,iso2:EE-70,iso1:EE,iso2:EE-70,,,,,
"Hiiu maakond, Estonia",state,,,Hiiu maakond,Estonia,10,,,362,,9387,9.198605386576343,58.8895,22.616500000000002,https://opendata.digilugu.ee/opendata_covid19_test_results.csv,0.43137254901960786,Europe/Tallinn,iso2:EE-39,iso1:EE,iso2:EE-39,,,,,
"Järva maakond, Estonia",state,,,Järva maakond,Estonia,10,,,977,,30661,11.481694504750509,58.937,25.607,https://opendata.digilugu.ee/opendata_covid19_test_results.csv,0.43137254901960786,Europe/Tallinn,iso2:EE-51,iso1:EE,iso2:EE-51,,,,,
Estonia,country,,,,Estonia,1535,,,40930,,1328360,29.43862715411736,58.668000000000006,24.989,https://opendata.digilugu.ee/opendata_covid19_test_results.csv,0.39215686274509803,Europe/Tallinn,iso1:EE,iso1:EE,,,,,,
"Andalusia, Spain",state,,,Andalusia,Spain,11323,1013,3229,,7081,8409738,95.85272557573485,37.334,-4.5725,https://github.com/datadista/datasets/tree/master/COVID%2019,0.6274509803921569,Europe/Madrid,iso2:ES-AN,iso1:ES,iso2:ES-AN,,state,,,
"Aragon, Spain",state,,,Aragon,Spain,4886,637,1178,,3071,1324397,27.720739661774214,41.3845,-0.701,https://github.com/datadista/datasets/tree/master/COVID%2019,0.6274509803921569,Europe/Madrid,iso2:ES-AR,iso1:ES,iso2:ES-AR,,state,,,
"Asturias, Spain",state,,,Asturias,Spain,2348,200,599,,1549,1028244,96.89655527964271,43.272999999999996,-5.8445,https://github.com/datadista/datasets/tree/master/COVID%2019,0.6274509803921569,Europe/Madrid,iso2:ES-AS,iso1:ES,iso2:ES-AS,,state,,,
"Balearic Islands, Spain",state,,,Balearic Islands,Spain,1788,157,1005,,626,1150839,230.46324494921916,39.3675,2.734,https://github.com/datadista/datasets/tree/master/COVID%2019,0.6274509803921569,Europe/Madrid,iso2:ES-IB,iso1:ES,iso2:ES-IB,,state,,,
"Canary Islands, Spain",state,,,Canary Islands,Spain,2067,119,813,,1135,2127685,285.1938217315716,28.5255,-15.75,https://github.com/datadista/datasets/tree/master/COVID%2019,0.6274509803921569,Etc/GMT+1,iso2:ES-CN,iso1:ES,iso2:ES-CN,,state,,,
"Cantabria, Spain",state,,,Cantabria,Spain,2083,158,626,,1299,580229,108.83115249828475,43.1355,-4.002,https://github.com/datadista/datasets/tree/master/COVID%2019,0.6274509803921569,Europe/Madrid,iso2:ES-CB,iso1:ES,iso2:ES-CB,,state,,,
"Castile-La Mancha, Spain",state,,,Castile-La Mancha,Spain,16796,2021,4178,,10597,2106331,26.481202980357033,39.6755,-3.161,https://github.com/datadista/datasets/tree/master/COVID%2019,0.6274509803921569,Europe/Madrid,iso2:ES-CM,iso1:ES,iso2:ES-CM,,state,,,
"Castile and León, Spain",state,,,Castile and León,Spain,15857,1493,5366,,8998,2418694,25.659203426061918,41.66,-4.426,https://github.com/datadista/datasets/tree/master/COVID%2019,0.6274509803921569,Europe/Madrid,iso2:ES-CL,iso1:ES,iso2:ES-CL,,state,,,
"Catalonia, Spain",state,,,Catalonia,Spain,41676,4009,13934,,23733,7619494,237.04148617078184,41.6925,1.746,https://github.com/datadista/datasets/tree/master/COVID%2019,0.6274509803921569,Europe/Madrid,iso2:ES-CT,iso1:ES,iso2:ES-CT,,state,,,
"Ceuta, Spain",state,,,Ceuta,Spain,111,4,74,,33,84777,9021.596722065347,35.891999999999996,-5.3495,https://github.com/datadista/datasets/tree/master/COVID%2019,0.6274509803921569,Africa/Ceuta,iso2:ES-CE,iso1:ES,iso2:ES-CE,,state,,,
"Valencian Community, Spain",state,,,Valencian Community,Spain,10018,1079,4629,,4310,5003769,214.46461227177505,39.316500000000005,-0.4195,https://github.com/datadista/datasets/tree/master/COVID%2019,0.6274509803921569,Europe/Madrid,iso2:ES-VC,iso1:ES,iso2:ES-VC,,state,,,
"Extremadura, Spain",state,,,Extremadura,Spain,3186,389,858,,1939,1067710,25.6017599883363,39.213499999999996,-6.096,https://github.com/datadista/datasets/tree/master/COVID%2019,0.6274509803921569,Europe/Madrid,iso2:ES-EX,iso1:ES,iso2:ES-EX,,state,,,
"Galicia, Spain",state,,,Galicia,Spain,8299,352,1548,,6399,2703290,91.3767321968267,42.792,-8.0175,https://github.com/datadista/datasets/tree/master/COVID%2019,0.6274509803921569,Europe/Madrid,iso2:ES-GA,iso1:ES,iso2:ES-GA,,state,,,
"Community of Madrid, Spain",state,,,Community of Madrid,Spain,56963,7351,31762,,17850,6661949,830.8463058477915,40.5255,-3.816,https://github.com/datadista/datasets/tree/master/COVID%2019,0.6274509803921569,Europe/Madrid,iso2:ES-MD,iso1:ES,iso2:ES-MD,,state,,,
"Melilla, Spain",state,,,Melilla,Spain,104,2,46,,56,86487,10845.323228033423,35.296,-2.9495,https://github.com/datadista/datasets/tree/master/COVID%2019,0.6274509803921569,Africa/Ceuta,iso2:ES-ML,iso1:ES,iso2:ES-ML,,state,,,
"Region of Murcia, Spain",state,,,Region of Murcia,Spain,1646,117,662,,867,1478509,130.67832778737693,38.065,-1.4955,https://github.com/datadista/datasets/tree/master/COVID%2019,0.6274509803921569,Europe/Madrid,iso2:ES-MC,iso1:ES,iso2:ES-MC,,state,,,
"Navarre, Spain",state,,,Navarre,Spain,4697,385,1123,,3189,647554,62.3264579614637,42.6125,-1.6065,https://github.com/datadista/datasets/tree/master/COVID%2019,0.6274509803921569,Europe/Madrid,iso2:ES-NC,iso1:ES,iso2:ES-NC,,state,,,
"Basque Country, Spain",state,,,Basque Country,Spain,12628,1081,7124,,4423,2167707,297.0227658821682,42.968,-2.59,https://github.com/datadista/datasets/tree/master/COVID%2019,0.6274509803921569,Europe/Madrid,iso2:ES-PV,iso1:ES,iso2:ES-PV,,state,,,
"Rioja, Spain",state,,,Rioja,Spain,3734,285,1833,,1616,315675,62.51306213876896,42.281499999999994,-2.4065,https://github.com/datadista/datasets/tree/master/COVID%2019,0.6274509803921569,Europe/Madrid,iso2:ES-RI,iso1:ES,iso2:ES-RI,,state,,,
Spain,country,,,,Spain,200210,20852,80587,,98771,46733038,92.25117224677774,35.712,-6.925500000000001,https://github.com/datadista/datasets/tree/master/COVID%2019,0.5882352941176471,Etc/GMT,iso1:ES,iso1:ES,,,state,,,
Guadeloupe,country,,,,Guadeloupe,,12,,27,,390253,243.59300797791047,16.1755,-61.402,https://www.data.gouv.fr/fr/organizations/sante-publique-france/datasets-resources.csv,0.43137254901960786,America/Guadeloupe,iso1:GP,iso1:GP,,106,,62,,
Martinique,country,,,,Martinique,,9,,16,,372594,342.48416323307015,14.635,-61.019999999999996,https://www.data.gouv.fr/fr/organizations/sante-publique-france/datasets-resources.csv,0.43137254901960786,America/Martinique,iso1:MQ,iso1:MQ,,103,,60,,
French Guiana,country,,,,French Guiana,,0,,25,,268700,3.1944194806727215,3.9345,-53.117999999999995,https://www.data.gouv.fr/fr/organizations/sante-publique-france/datasets-resources.csv,0.43137254901960786,America/Cayenne,iso1:GF,iso1:GF,,33,,29,,
Réunion,country,,,,Réunion,,0,,5,,866506,345.6354198098439,-21.131,55.522,https://www.data.gouv.fr/fr/organizations/sante-publique-france/datasets-resources.csv,0.43137254901960786,Indian/Reunion,iso1:RE,iso1:RE,,108,,93,,
Mayotte,country,,,,Mayotte,,6,,2,,256518,732.6494241701018,-12.8295,45.16,https://www.data.gouv.fr/fr/organizations/sante-publique-france/datasets-resources.csv,0.43137254901960786,Indian/Mayotte,iso1:YT,iso1:YT,,75,,47,,
"Aube, Grand Est, Metropolitan France",county,,Aube,Grand Est,Metropolitan France,,82,,1392,,310020,51.28608738631563,48.3195,4.124,https://www.data.gouv.fr/fr/organizations/sante-publique-france/datasets-resources.csv,0.5490196078431373,Europe/Paris,iso2:FR-10,iso1:FX,iso2:FR-GES,601,,263,iso2:FR-10,
"Aude, Occitania, Metropolitan France",county,,Aude,Occitania,Metropolitan France,,43,,751,,370260,58.24155085837583,43.05500000000001,2.4645,https://www.data.gouv.fr/fr/organizations/sante-publique-france/datasets-resources.csv,0.5490196078431373,Europe/Paris,iso2:FR-11,iso1:FX,iso2:FR-OCC,223,,127,iso2:FR-11,
"Aveyron, Occitania, Metropolitan France",county,,Aveyron,Occitania,Metropolitan France,,19,,21,,279206,31.809395305193412,44.317,2.644,https://www.data.gouv.fr/fr/organizations/sante-publique-france/datasets-resources.csv,0.5490196078431373,Europe/Paris,iso2:FR-12,iso1:FX,iso2:FR-OCC,157,,72,iso2:FR-12,
"Bouches-du-Rhône, Provence-Alpes-Côte d'Azur, Metropolitan France",county,,Bouches-du-Rhône,Provence-Alpes-Côte d'Azur,Metropolitan France,,269,,15867,,2024162,383.8647196529073,43.543,5.022,https://www.data.gouv.fr/fr/organizations/sante-publique-france/datasets-resources.csv,0.5490196078431373,Europe/Paris,iso2:FR-13,iso1:FX,iso2:FR-PAC,2983,,1726,iso2:FR-13,
"Calvados, Normandy, Metropolitan France",county,,Calvados,Normandy,Metropolitan France,,51,,1207,,694002,123.98254946337528,49.091,-0.364,https://www.data.gouv.fr/fr/organizations/sante-publique-france/datasets-resources.csv,0.5490196078431373,Europe/Paris,iso2:FR-14,iso1:FX,iso2:FR-NOR,329,,134,iso2:FR-14,
"Cantal, Auvergne-Rhône-Alpes, Metropolitan France",county,,Cantal,Auvergne-Rhône-Alpes,Metropolitan France,,0,,37,,145143,25.1428821271655,45.0475,2.7165,https://www.data.gouv.fr/fr/organizations/sante-publique-france/datasets-resources.csv,0.5490196078431373,Europe/Paris,iso2:FR-15,iso1:FX,iso2:FR-ARA,48,,20,iso2:FR-15,
"Charente, New Aquitaine, Metropolitan France",county,,Charente,New Aquitaine,Metropolitan France,,10,,219,,352335,58.98447492838439,45.6665,0.24099999999999996,https://www.data.gouv.fr/fr/organizations/sante-publique-france/datasets-resources.csv,0.5490196078431373,Europe/Paris,iso2:FR-16,iso1:FX,iso2:FR-NAQ,56,,34,iso2:FR-16,
"Charente-Maritime, New Aquitaine, Metropolitan France",county,,Charente-Maritime,New Aquitaine,Metropolitan France,,32,,2521,,644303,93.09047521627008,45.728,-0.779,https://www.data.gouv.fr/fr/organizations/sante-publique-france/datasets-resources.csv,0.5490196078431373,Europe/Paris,iso2:FR-17,iso1:FX,iso2:FR-NAQ,185,,72,iso2:FR-17,
"Cher, Centre-Loire Valley, Metropolitan France",county,,Cher,Centre-Loire Valley,Metropolitan France,,43,,768,,304256,41.64099454773985,47.0245,2.426,https://www.data.gouv.fr/fr/organizations/sante-publique-france/datasets-resources.csv,0.5490196078431373,Europe/Paris,iso2:FR-18,iso1:FX,iso2:FR-CVL,175,,49,iso2:FR-18,
"Corrèze, New Aquitaine, Metropolitan France",county,,Corrèze,New Aquitaine,Metropolitan France,,21,,116,,241464,40.832154035015584,45.344,1.8784999999999998,https://www.data.gouv.fr/fr/organizations/sante-publique-france/datasets-resources.csv,0.5490196078431373,Europe/Paris,iso2:FR-19,iso1:FX,iso2:FR-NAQ,141,,50,iso2:FR-19,
"Côte-d'Or, Bourgogne-Franche-Comté, Metropolitan France",county,,Côte-d'Or,Bourgogne-Franche-Comté,Metropolitan France,,171,,500,,533819,60.73773353976259,47.4645,4.793,https://www.data.gouv.fr/fr/organizations/sante-publique-france/datasets-resources.csv,0.5490196078431373,Europe/Paris,iso2:FR-21,iso1:FX,iso2:FR-BFC,1039,,505,iso2:FR-21,
"Côtes-d'Armor, Brittany, Metropolitan France",county,,Côtes-d'Armor,Brittany,Metropolitan France,,24,,41,,598814,85.8015810764886,48.4715,-2.785,https://www.data.gouv.fr/fr/organizations/sante-publique-france/datasets-resources.csv,0.5490196078431373,Europe/Paris,iso2:FR-22,iso1:FX,iso2:FR-BRE,178,,94,iso2:FR-22,
"Creuse, New Aquitaine, Metropolitan France",county,,Creuse,New Aquitaine,Metropolitan France,,5,,11,,118638,21.183737677410747,46.059,1.991,https://www.data.gouv.fr/fr/organizations/sante-publique-france/datasets-resources.csv,0.5490196078431373,Europe/Paris,iso2:FR-23,iso1:FX,iso2:FR-NAQ,48,,12,iso2:FR-23,
"Dordogne, New Aquitaine, Metropolitan France",county,,Dordogne,New Aquitaine,Metropolitan France,,6,,449,,413606,44.86482874642483,45.146,0.704,https://www.data.gouv.fr/fr/organizations/sante-publique-france/datasets-resources.csv,0.5490196078431373,Europe/Paris,iso2:FR-24,iso1:FX,iso2:FR-NAQ,106,,40,iso2:FR-24,
"Doubs, Bourgogne-Franche-Comté, Metropolitan France",county,,Doubs,Bourgogne-Franche-Comté,Metropolitan France,,95,,606,,539067,102.49252988623152,47.065,6.374499999999999,https://www.data.gouv.fr/fr/organizations/sante-publique-france/datasets-resources.csv,0.5490196078431373,Europe/Paris,iso2:FR-25,iso1:FX,iso2:FR-BFC,619,,340,iso2:FR-25,
"Drôme, Auvergne-Rhône-Alpes, Metropolitan France",county,,Drôme,Auvergne-Rhône-Alpes,Metropolitan France,,105,,578,,511553,78.07957318158029,44.730000000000004,5.24,https://www.data.gouv.fr/fr/organizations/sante-publique-france/datasets-resources.csv,0.5490196078431373,Europe/Paris,iso2:FR-26,iso1:FX,iso2:FR-ARA,568,,289,iso2:FR-26,
"Eure, Normandy, Metropolitan France",county,,Eure,Normandy,Metropolitan France,,56,,2003,,601843,99.43448009672794,49.076499999999996,1.047,https://www.data.gouv.fr/fr/organizations/sante-publique-france/datasets-resources.csv,0.5490196078431373,Europe/Paris,iso2:FR-27,iso1:FX,iso2:FR-NOR,222,,75,iso2:FR-27,
"Eure-et-Loir, Centre-Loire Valley, Metropolitan France",county,,Eure-et-Loir,Centre-Loire Valley,Metropolitan France,,66,,1737,,433233,73.51849970904416,48.447500000000005,1.375,https://www.data.gouv.fr/fr/organizations/sante-publique-france/datasets-resources.csv,0.5490196078431373,Europe/Paris,iso2:FR-28,iso1:FX,iso2:FR-CVL,555,,245,iso2:FR-28,
"Finistère, Brittany, Metropolitan France",county,,Finistère,Brittany,Metropolitan France,,31,,20,,909028,133.28559115756707,48.2285,-4.2665,https://www.data.gouv.fr/fr/organizations/sante-publique-france/datasets-resources.csv,0.5490196078431373,Europe/Paris,iso2:FR-29,iso1:FX,iso2:FR-BRE,233,,108,iso2:FR-29,
"Gard, Occitania, Metropolitan France",county,,Gard,Occitania,Metropolitan France,,34,,125,,744178,127.34106006872453,43.96,4.052,https://www.data.gouv.fr/fr/organizations/sante-publique-france/datasets-resources.csv,0.5490196078431373,Europe/Paris,iso2:FR-30,iso1:FX,iso2:FR-OCC,306,,142,iso2:FR-30,
"Haute-Garonne, Occitania, Metropolitan France",county,,Haute-Garonne,Occitania,Metropolitan France,,37,,416,,1362672,214.1013272235967,43.3065,1.245,https://www.data.gouv.fr/fr/organizations/sante-publique-france/datasets-resources.csv,0.5490196078431373,Europe/Paris,iso2:FR-31,iso1:FX,iso2:FR-OCC,582,,357,iso2:FR-31,
"Gers, Occitania, Metropolitan France",county,,Gers,Occitania,Metropolitan France,,11,,608,,191091,30.305896329780694,43.695499999999996,0.45999999999999996,https://www.data.gouv.fr/fr/organizations/sante-publique-france/datasets-resources.csv,0.5490196078431373,Europe/Paris,iso2:FR-32,iso1:FX,iso2:FR-OCC,87,,24,iso2:FR-32,
"Gironde, New Aquitaine, Metropolitan France",county,,Gironde,New Aquitaine,Metropolitan France,,92,,3740,,1583384,157.56919623292714,44.894000000000005,-0.473,https://www.data.gouv.fr/fr/organizations/sante-publique-france/datasets-resources.csv,0.5490196078431373,Europe/Paris,iso2:FR-33,iso1:FX,iso2:FR-NAQ,888,,502,iso2:FR-33,
"Hérault, Occitania, Metropolitan France",county,,Hérault,Occitania,Metropolitan France,,94,,507,,1144892,182.93376853826118,43.5925,3.3695,https://www.data.gouv.fr/fr/organizations/sante-publique-france/datasets-resources.csv,0.5490196078431373,Europe/Paris,iso2:FR-34,iso1:FX,iso2:FR-OCC,709,,474,iso2:FR-34,
"Ille-et-Vilaine, Brittany, Metropolitan France",county,,Ille-et-Vilaine,Brittany,Metropolitan France,,60,,58,,1060199,154.74017167752794,48.176,-1.6515,https://www.data.gouv.fr/fr/organizations/sante-publique-france/datasets-resources.csv,0.5490196078431373,Europe/Paris,iso2:FR-35,iso1:FX,iso2:FR-BRE,447,,212,iso2:FR-35,
"Indre, Centre-Loire Valley, Metropolitan France",county,,Indre,Centre-Loire Valley,Metropolitan France,,46,,908,,222232,32.202747150799894,46.812,1.5355,https://www.data.gouv.fr/fr/organizations/sante-publique-france/datasets-resources.csv,0.5490196078431373,Europe/Paris,iso2:FR-36,iso1:FX,iso2:FR-CVL,184,,39,iso2:FR-36,
"Indre-et-Loire, Centre-Loire Valley, Metropolitan France",county,,Indre-et-Loire,Centre-Loire Valley,Metropolitan France,,51,,1041,,606511,98.52657357560139,47.2235,0.7100000000000001,https://www.data.gouv.fr/fr/organizations/sante-publique-france/datasets-resources.csv,0.5490196078431373,Europe/Paris,iso2:FR-37,iso1:FX,iso2:FR-CVL,378,,162,iso2:FR-37,
"Isère, Auvergne-Rhône-Alpes, Metropolitan France",county,,Isère,Auvergne-Rhône-Alpes,Metropolitan France,,74,,1327,,1258722,159.8992501515639,45.29,5.5504999999999995,https://www.data.gouv.fr/fr/organizations/sante-publique-france/datasets-resources.csv,0.5490196078431373,Europe/Paris,iso2:FR-38,iso1:FX,iso2:FR-ARA,618,,308,iso2:FR-38,
"Jura, Bourgogne-Franche-Comté, Metropolitan France",county,,Jura,Bourgogne-Franche-Comté,Metropolitan France,,37,,316,,260188,51.37905877965508,46.7825,5.731,https://www.data.gouv.fr/fr/organizations/sante-publique-france/datasets-resources.csv,0.5490196078431373,Europe/Paris,iso2:FR-39,iso1:FX,iso2:FR-BFC,270,,98,iso2:FR-39,
"Landes, New Aquitaine, Metropolitan France",county,,Landes,New Aquitaine,Metropolitan France,,10,,289,,407444,43.51262333594392,44.0145,-0.694,https://www.data.gouv.fr/fr/organizations/sante-publique-france/datasets-resources.csv,0.5490196078431373,Europe/Paris,iso2:FR-40,iso1:FX,iso2:FR-NAQ,76,,38,iso2:FR-40,
"Loir-et-Cher, Centre-Loire Valley, Metropolitan France",county,,Loir-et-Cher,Centre-Loire Valley,Metropolitan France,,35,,234,,331915,51.70840580737599,47.6595,1.4145,https://www.data.gouv.fr/fr/organizations/sante-publique-france/datasets-resources.csv,0.5490196078431373,Europe/Paris,iso2:FR-41,iso1:FX,iso2:FR-CVL,234,,85,iso2:FR-41,
"Loire, Auvergne-Rhône-Alpes, Metropolitan France",county,,Loire,Auvergne-Rhône-Alpes,Metropolitan France,,145,,90,,762941,158.9822906706713,45.7565,4.2245,https://www.data.gouv.fr/fr/organizations/sante-publique-france/datasets-resources.csv,0.5490196078431373,Europe/Paris,iso2:FR-42,iso1:FX,iso2:FR-ARA,1071,,457,iso2:FR-42,
"Haute-Loire, Auvergne-Rhône-Alpes, Metropolitan France",county,,Haute-Loire,Auvergne-Rhône-Alpes,Metropolitan France,,6,,132,,227283,45.28189074838839,45.086,3.783,https://www.data.gouv.fr/fr/organizations/sante-publique-france/datasets-resources.csv,0.5490196078431373,Europe/Paris,iso2:FR-43,iso1:FX,iso2:FR-ARA,99,,62,iso2:FR-43,
"Loire-Atlantique, Pays de la Loire, Metropolitan France",county,,Loire-Atlantique,Pays de la Loire,Metropolitan France,,98,,353,,1394909,198.9991224243904,47.3455,-1.786,https://www.data.gouv.fr/fr/organizations/sante-publique-france/datasets-resources.csv,0.5490196078431373,Europe/Paris,iso2:FR-44,iso1:FX,iso2:FR-PDL,668,,299,iso2:FR-44,
"Loiret, Centre-Loire Valley, Metropolitan France",county,,Loiret,Centre-Loire Valley,Metropolitan France,,57,,1769,,678105,99.43431207963992,47.914500000000004,2.318,https://www.data.gouv.fr/fr/organizations/sante-publique-france/datasets-resources.csv,0.5490196078431373,Europe/Paris,iso2:FR-45,iso1:FX,iso2:FR-CVL,627,,316,iso2:FR-45,
"Lot, Occitania, Metropolitan France",county,,Lot,Occitania,Metropolitan France,,11,,62,,173828,33.36975026885612,44.63549999999999,1.5939999999999999,https://www.data.gouv.fr/fr/organizations/sante-publique-france/datasets-resources.csv,0.5490196078431373,Europe/Paris,iso2:FR-46,iso1:FX,iso2:FR-OCC,139,,105,iso2:FR-46,
"Lot-et-Garonne, New Aquitaine, Metropolitan France",county,,Lot-et-Garonne,New Aquitaine,Metropolitan France,,5,,311,,332842,61.50418078030474,44.369,0.46699999999999997,https://www.data.gouv.fr/fr/organizations/sante-publique-france/datasets-resources.csv,0.5490196078431373,Europe/Paris,iso2:FR-47,iso1:FX,iso2:FR-NAQ,70,,33,iso2:FR-47,
"Lozère, Occitania, Metropolitan France",county,,Lozère,Occitania,Metropolitan France,,0,,1,,76601,14.777261807736984,44.546,3.49,https://www.data.gouv.fr/fr/organizations/sante-publique-france/datasets-resources.csv,0.5490196078431373,Europe/Paris,iso2:FR-48,iso1:FX,iso2:FR-OCC,17,,12,iso2:FR-48,
"Maine-et-Loire, Pays de la Loire, Metropolitan France",county,,Maine-et-Loire,Pays de la Loire,Metropolitan France,,76,,59,,813493,114.03324632265085,47.393,-0.56,https://www.data.gouv.fr/fr/organizations/sante-publique-france/datasets-resources.csv,0.5490196078431373,Europe/Paris,iso2:FR-49,iso1:FX,iso2:FR-PDL,567,,313,iso2:FR-49,
"Manche, Normandy, Metropolitan France",county,,Manche,Normandy,Metropolitan France,,32,,1066,,496883,82.33652708923701,49.091,-1.3455,https://www.data.gouv.fr/fr/organizations/sante-publique-france/datasets-resources.csv,0.5490196078431373,Europe/Paris,iso2:FR-50,iso1:FX,iso2:FR-NOR,181,,70,iso2:FR-50,
"Marne, Grand Est, Metropolitan France",county,,Marne,Grand Est,Metropolitan France,,183,,1239,,568895,69.47847530352014,48.961,4.218,https://www.data.gouv.fr/fr/organizations/sante-publique-france/datasets-resources.csv,0.5490196078431373,Europe/Paris,iso2:FR-51,iso1:FX,iso2:FR-GES,1083,,565,iso2:FR-51,
"Haute-Marne, Grand Est, Metropolitan France",county,,Haute-Marne,Grand Est,Metropolitan France,,49,,122,,175640,28.08796308064859,48.132999999999996,5.269,https://www.data.gouv.fr/fr/organizations/sante-publique-france/datasets-resources.csv,0.5490196078431373,Europe/Paris,iso2:FR-52,iso1:FX,iso2:FR-GES,245,,110,iso2:FR-52,
"Mayenne, Pays de la Loire, Metropolitan France",county,,Mayenne,Pays de la Loire,Metropolitan France,,27,,32,,307445,58.897753730124826,48.152,-0.645,https://www.data.gouv.fr/fr/organizations/sante-publique-france/datasets-resources.csv,0.5490196078431373,Europe/Paris,iso2:FR-53,iso1:FX,iso2:FR-PDL,173,,58,iso2:FR-53,
"Meurthe-et-Moselle, Grand Est, Metropolitan France",county,,Meurthe-et-Moselle,Grand Est,Metropolitan France,,228,,1210,,733481,138.5739317985685,48.957,6.2745,https://www.data.gouv.fr/fr/organizations/sante-publique-france/datasets-resources.csv,0.5490196078431373,Europe/Paris,iso2:FR-54,iso1:FX,iso2:FR-GES,1233,,572,iso2:FR-54,
"Meuse, Grand Est, Metropolitan France",county,,Meuse,Grand Est,Metropolitan France,,71,,315,,187187,30.17978875743819,49.019,5.369,https://www.data.gouv.fr/fr/organizations/sante-publique-france/datasets-resources.csv,0.5490196078431373,Europe/Paris,iso2:FR-55,iso1:FX,iso2:FR-GES,461,,236,iso2:FR-55,
"Morbihan, Brittany, Metropolitan France",county,,Morbihan,Brittany,Metropolitan France,,74,,24,,750863,109.74523224871103,47.745000000000005,-2.891,https://www.data.gouv.fr/fr/organizations/sante-publique-france/datasets-resources.csv,0.5490196078431373,Europe/Paris,iso2:FR-56,iso1:FX,iso2:FR-BRE,360,,236,iso2:FR-56,
"Moselle, Grand Est, Metropolitan France",county,,Moselle,Grand Est,Metropolitan France,,579,,2332,,1043522,167.21597461551477,49.021,6.7645,https://www.data.gouv.fr/fr/organizations/sante-publique-france/datasets-resources.csv,0.5490196078431373,Europe/Paris,iso2:FR-57,iso1:FX,iso2:FR-GES,2716,,1158,iso2:FR-57,
"Nièvre, Bourgogne-Franche-Comté, Metropolitan France",county,,Nièvre,Bourgogne-Franche-Comté,Metropolitan France,,18,,885,,207182,30.129587537706243,47.1205,3.5460000000000003,https://www.data.gouv.fr/fr/organizations/sante-publique-france/datasets-resources.csv,0.5490196078431373,Europe/Paris,iso2:FR-58,iso1:FX,iso2:FR-BFC,104,,28,iso2:FR-58,
"Nord, Hauts-de-France, Metropolitan France",county,,Nord,Hauts-de-France,Metropolitan France,,368,,1550,,2604361,453.04523241205754,50.53,3.152,https://www.data.gouv.fr/fr/organizations/sante-publique-france/datasets-resources.csv,0.5490196078431373,Europe/Paris,iso2:FR-59,iso1:FX,iso2:FR-HDF,2296,,990,iso2:FR-59,
"Oise, Hauts-de-France, Metropolitan France",county,,Oise,Hauts-de-France,Metropolitan France,,278,,2942,,824503,139.49331297891072,49.414500000000004,2.432,https://www.data.gouv.fr/fr/organizations/sante-publique-france/datasets-resources.csv,0.5490196078431373,Europe/Paris,iso2:FR-60,iso1:FX,iso2:FR-HDF,1319,,570,iso2:FR-60,
"Orne, Normandy, Metropolitan France",county,,Orne,Normandy,Metropolitan France,,25,,533,,283372,46.25409153573346,48.576,0.05399999999999999,https://www.data.gouv.fr/fr/organizations/sante-publique-france/datasets-resources.csv,0.5490196078431373,Europe/Paris,iso2:FR-61,iso1:FX,iso2:FR-NOR,221,,132,iso2:FR-61,
"Pas-de-Calais, Hauts-de-France, Metropolitan France",county,,Pas-de-Calais,Hauts-de-France,Metropolitan France,,155,,1539,,1468018,218.6052698766694,50.5195,2.367,https://www.data.gouv.fr/fr/organizations/sante-publique-france/datasets-resources.csv,0.5490196078431373,Europe/Paris,iso2:FR-62,iso1:FX,iso2:FR-HDF,1164,,550,iso2:FR-62,
"Puy-de-Dôme, Auvergne-Rhône-Alpes, Metropolitan France",county,,Puy-de-Dôme,Auvergne-Rhône-Alpes,Metropolitan France,,27,,25,,653742,81.43940851254663,45.772,3.187,https://www.data.gouv.fr/fr/organizations/sante-publique-france/datasets-resources.csv,0.5490196078431373,Europe/Paris,iso2:FR-63,iso1:FX,iso2:FR-ARA,190,,97,iso2:FR-63,
"Pyrénées-Atlantiques, New Aquitaine, Metropolitan France",county,,Pyrénées-Atlantiques,New Aquitaine,Metropolitan France,,20,,521,,677309,88.560704005486,43.1885,-0.878,https://www.data.gouv.fr/fr/organizations/sante-publique-france/datasets-resources.csv,0.5490196078431373,Europe/Paris,iso2:FR-64,iso1:FX,iso2:FR-NAQ,225,,126,iso2:FR-64,
"Hautespyrenees, Occitania, Metropolitan France",county,,Hautespyrenees,Occitania,Metropolitan France,,16,,417,,228530,50.43658520033781,43.1405,0.159,https://www.data.gouv.fr/fr/organizations/sante-publique-france/datasets-resources.csv,0.5490196078431373,Europe/Paris,iso2:FR-65,iso1:FX,iso2:FR-OCC,169,,70,iso2:FR-65,
"Pyrénées-Orientales, Occitania, Metropolitan France",county,,Pyrénées-Orientales,Occitania,Metropolitan France,,25,,62,,474452,114.14726860663446,42.6265,2.4505,https://www.data.gouv.fr/fr/organizations/sante-publique-france/datasets-resources.csv,0.5490196078431373,Europe/Paris,iso2:FR-66,iso1:FX,iso2:FR-OCC,292,,237,iso2:FR-66,
"Bas-Rhin, Grand Est, Metropolitan France",county,,Bas-Rhin,Grand Est,Metropolitan France,,435,,1377,,1125559,235.73718136353355,48.598,7.594,https://www.data.gouv.fr/fr/organizations/sante-publique-france/datasets-resources.csv,0.5490196078431373,Europe/Paris,iso2:FR-67,iso1:FX,iso2:FR-GES,2773,,1336,iso2:FR-67,
"Haut-Rhin, Grand Est, Metropolitan France",county,,Haut-Rhin,Grand Est,Metropolitan France,,639,,2837,,764030,216.04339391807528,47.865,7.234,https://www.data.gouv.fr/fr/organizations/sante-publique-france/datasets-resources.csv,0.5490196078431373,Europe/Paris,iso2:FR-68,iso1:FX,iso2:FR-GES,2948,,1523,iso2:FR-68,
"Rhône, Auvergne-Rhône-Alpes, Metropolitan France",county,,Rhône,Auvergne-Rhône-Alpes,Metropolitan France,,416,,1276,,1843319,675.4380873898515,45.88,4.699,https://www.data.gouv.fr/fr/organizations/sante-publique-france/datasets-resources.csv,0.5490196078431373,Europe/Paris,iso2:FR-69,iso1:FX,iso2:FR-ARA,3032,,1397,iso2:FR-69,
"Haute-Saône, Bourgogne-Franche-Comté, Metropolitan France",county,,Haute-Saône,Bourgogne-Franche-Comté,Metropolitan France,,60,,829,,236659,43.941306611611836,47.6385,6.095000000000001,https://www.data.gouv.fr/fr/organizations/sante-publique-france/datasets-resources.csv,0.5490196078431373,Europe/Paris,iso2:FR-70,iso1:FX,iso2:FR-BFC,291,,143,iso2:FR-70,
"Saône-et-Loire, Bourgogne-Franche-Comté, Metropolitan France",county,,Saône-et-Loire,Bourgogne-Franche-Comté,Metropolitan France,,123,,1572,,553595,64.23742266477413,46.6555,4.547,https://www.data.gouv.fr/fr/organizations/sante-publique-france/datasets-resources.csv,0.5490196078431373,Europe/Paris,iso2:FR-71,iso1:FX,iso2:FR-BFC,649,,326,iso2:FR-71,
"Sarthe, Pays de la Loire, Metropolitan France",county,,Sarthe,Pays de la Loire,Metropolitan France,,41,,19,,566506,90.73504503278733,48.024,0.233,https://www.data.gouv.fr/fr/organizations/sante-publique-france/datasets-resources.csv,0.5490196078431373,Europe/Paris,iso2:FR-72,iso1:FX,iso2:FR-PDL,357,,181,iso2:FR-72,
"Savoy, Auvergne-Rhône-Alpes, Metropolitan France",county,,Savoy,Auvergne-Rhône-Alpes,Metropolitan France,,36,,238,,431174,68.71084072662892,45.4975,6.4025,https://www.data.gouv.fr/fr/organizations/sante-publique-france/datasets-resources.csv,0.5490196078431373,Europe/Paris,iso2:FR-73,iso1:FX,iso2:FR-ARA,379,,259,iso2:FR-73,
"Upper Savoy, Auvergne-Rhône-Alpes, Metropolitan France",county,,Upper Savoy,Auvergne-Rhône-Alpes,Metropolitan France,,118,,2085,,807360,176.17235244227683,46.045,6.426,https://www.data.gouv.fr/fr/organizations/sante-publique-france/datasets-resources.csv,0.5490196078431373,Europe/Paris,iso2:FR-74,iso1:FX,iso2:FR-ARA,845,,507,iso2:FR-74,
"Paris, Ile-de-France, Metropolitan France",county,,Paris,Ile-de-France,Metropolitan France,,1239,,9908,,2187526,22149.342381040304,48.8595,2.351,https://www.data.gouv.fr/fr/organizations/sante-publique-france/datasets-resources.csv,0.5490196078431373,Europe/Paris,iso2:FR-75,iso1:FX,iso2:FR-IDF,7187,,3069,iso2:FR-75,
"Seine-Maritime, Normandy, Metropolitan France",county,,Seine-Maritime,Normandy,Metropolitan France,,119,,1943,,1254378,198.7670608852414,49.658,0.9295,https://www.data.gouv.fr/fr/organizations/sante-publique-france/datasets-resources.csv,0.5490196078431373,Europe/Paris,iso2:FR-76,iso1:FX,iso2:FR-NOR,805,,410,iso2:FR-76,
"Seine-et-Marne, Ile-de-France, Metropolitan France",county,,Seine-et-Marne,Ile-de-France,Metropolitan France,,380,,3857,,1403997,237.18802199447288,48.619,2.9795,https://www.data.gouv.fr/fr/organizations/sante-publique-france/datasets-resources.csv,0.5490196078431373,Europe/Paris,iso2:FR-77,iso1:FX,iso2:FR-IDF,2438,,1316,iso2:FR-77,
"Yvelines, Ile-de-France, Metropolitan France",county,,Yvelines,Ile-de-France,Metropolitan France,,357,,2614,,1438266,621.1144366521775,48.760000000000005,1.8365,https://www.data.gouv.fr/fr/organizations/sante-publique-france/datasets-resources.csv,0.5490196078431373,Europe/Paris,iso2:FR-78,iso1:FX,iso2:FR-IDF,2383,,1135,iso2:FR-78,
"Deux-Sèvres, New Aquitaine, Metropolitan France",county,,Deux-Sèvres,New Aquitaine,Metropolitan France,,13,,20,,374351,61.87014165117896,46.539,-0.336,https://www.data.gouv.fr/fr/organizations/sante-publique-france/datasets-resources.csv,0.5490196078431373,Europe/Paris,iso2:FR-79,iso1:FX,iso2:FR-NAQ,74,,30,iso2:FR-79,
"Somme, Hauts-de-France, Metropolitan France",county,,Somme,Hauts-de-France,Metropolitan France,,151,,1275,,572443,92.81984174937891,49.967,2.291,https://www.data.gouv.fr/fr/organizations/sante-publique-france/datasets-resources.csv,0.5490196078431373,Europe/Paris,iso2:FR-80,iso1:FX,iso2:FR-HDF,862,,374,iso2:FR-80,
"Tarn, Occitania, Metropolitan France",county,,Tarn,Occitania,Metropolitan France,,17,,348,,387890,67.31502781864442,43.792,2.245,https://www.data.gouv.fr/fr/organizations/sante-publique-france/datasets-resources.csv,0.5490196078431373,Europe/Paris,iso2:FR-81,iso1:FX,iso2:FR-OCC,116,,60,iso2:FR-81,
"Tarn-et-Garonne, Occitania, Metropolitan France",county,,Tarn-et-Garonne,Occitania,Metropolitan France,,3,,147,,258349,69.75734192648133,44.083,1.366,https://www.data.gouv.fr/fr/organizations/sante-publique-france/datasets-resources.csv,0.5490196078431373,Europe/Paris,iso2:FR-82,iso1:FX,iso2:FR-OCC,45,,27,iso2:FR-82,
"Var, Provence-Alpes-Côte d'Azur, Metropolitan France",county,,Var,Provence-Alpes-Côte d'Azur,Metropolitan France,,87,,3773,,1058740,175.40351696465999,43.396,6.2989999999999995,https://www.data.gouv.fr/fr/organizations/sante-publique-france/datasets-resources.csv,0.5490196078431373,Europe/Paris,iso2:FR-83,iso1:FX,iso2:FR-PAC,779,,458,iso2:FR-83,
"Vaucluse, Provence-Alpes-Côte d'Azur, Metropolitan France",county,,Vaucluse,Provence-Alpes-Côte d'Azur,Metropolitan France,,24,,2224,,559479,155.97154379788802,44.045,5.2035,https://www.data.gouv.fr/fr/organizations/sante-publique-france/datasets-resources.csv,0.5490196078431373,Europe/Paris,iso2:FR-84,iso1:FX,iso2:FR-PAC,223,,143,iso2:FR-84,
"Vendée, Pays de la Loire, Metropolitan France",county,,Vendée,Pays de la Loire,Metropolitan France,,26,,98,,675247,99.41323280585162,46.676,-1.4689999999999999,https://www.data.gouv.fr/fr/organizations/sante-publique-france/datasets-resources.csv,0.5490196078431373,Europe/Paris,iso2:FR-85,iso1:FX,iso2:FR-PDL,198,,106,iso2:FR-85,
"Vienne, New Aquitaine, Metropolitan France",county,,Vienne,New Aquitaine,Metropolitan France,,25,,98,,436876,62.046288456216075,46.619,0.5549999999999999,https://www.data.gouv.fr/fr/organizations/sante-publique-france/datasets-resources.csv,0.5490196078431373,Europe/Paris,iso2:FR-86,iso1:FX,iso2:FR-NAQ,155,,72,iso2:FR-86,
"Haute-Vienne, New Aquitaine, Metropolitan France",county,,Haute-Vienne,New Aquitaine,Metropolitan France,,20,,10,,374426,67.64611434418379,45.922,1.2685,https://www.data.gouv.fr/fr/organizations/sante-publique-france/datasets-resources.csv,0.5490196078431373,Europe/Paris,iso2:FR-87,iso1:FX,iso2:FR-NAQ,143,,74,iso2:FR-87,
"Vosges, Grand Est, Metropolitan France",county,,Vosges,Grand Est,Metropolitan France,,209,,1070,,367673,62.48226148440199,48.164,6.3025,https://www.data.gouv.fr/fr/organizations/sante-publique-france/datasets-resources.csv,0.5490196078431373,Europe/Paris,iso2:FR-88,iso1:FX,iso2:FR-GES,800,,361,iso2:FR-88,
"Yonne, Bourgogne-Franche-Comté, Metropolitan France",county,,Yonne,Bourgogne-Franche-Comté,Metropolitan France,,41,,243,,338291,45.406755007690485,47.8525,3.591,https://www.data.gouv.fr/fr/organizations/sante-publique-france/datasets-resources.csv,0.5490196078431373,Europe/Paris,iso2:FR-89,iso1:FX,iso2:FR-BFC,250,,117,iso2:FR-89,
"Territoire-de-Belfort, Bourgogne-Franche-Comté, Metropolitan France",county,,Territoire-de-Belfort,Bourgogne-Franche-Comté,Metropolitan France,,132,,423,,142622,235.42369600241253,47.628,6.9505,https://www.data.gouv.fr/fr/organizations/sante-publique-france/datasets-resources.csv,0.5490196078431373,Europe/Paris,iso2:FR-90,iso1:FX,iso2:FR-BFC,627,,307,iso2:FR-90,
"Essonne, Ile-de-France, Metropolitan France",county,,Essonne,Ile-de-France,Metropolitan France,,322,,4523,,1296130,721.1093208803669,48.5305,2.247,https://www.data.gouv.fr/fr/organizations/sante-publique-france/datasets-resources.csv,0.5490196078431373,Europe/Paris,iso2:FR-91,iso1:FX,iso2:FR-IDF,2364,,842,iso2:FR-91,
"Hauts-de-Seine, Ile-de-France, Metropolitan France",county,,Hauts-de-Seine,Ile-de-France,Metropolitan France,,699,,6776,,1609306,9361.005165042525,48.8495,2.24,https://www.data.gouv.fr/fr/organizations/sante-publique-france/datasets-resources.csv,0.5490196078431373,Europe/Paris,iso2:FR-92,iso1:FX,iso2:FR-IDF,4747,,2091,iso2:FR-92,
"Seine-Saint-Denis, Ile-de-France, Metropolitan France",county,,Seine-Saint-Denis,Ile-de-France,Metropolitan France,,704,,4799,,1623111,6879.248024462339,48.908500000000004,2.442,https://www.data.gouv.fr/fr/organizations/sante-publique-france/datasets-resources.csv,0.5490196078431373,Europe/Paris,iso2:FR-93,iso1:FX,iso2:FR-IDF,3895,,1649,iso2:FR-93,
"Val-de-Marne, Ile-de-France, Metropolitan France",county,,Val-de-Marne,Ile-de-France,Metropolitan France,,764,,3978,,1387926,5555.917813679867,48.7765,2.468,https://www.data.gouv.fr/fr/organizations/sante-publique-france/datasets-resources.csv,0.5490196078431373,Europe/Paris,iso2:FR-94,iso1:FX,iso2:FR-IDF,4566,,1608,iso2:FR-94,
"Val-d'Oise, Ile-de-France, Metropolitan France",county,,Val-d'Oise,Ile-de-France,Metropolitan France,,477,,3960,,1228618,996.3319944651323,49.070499999999996,2.099,https://www.data.gouv.fr/fr/organizations/sante-publique-france/datasets-resources.csv,0.5490196078431373,Europe/Paris,iso2:FR-95,iso1:FX,iso2:FR-IDF,2766,,1385,iso2:FR-95,
"Ain, Auvergne-Rhône-Alpes, Metropolitan France",county,,Ain,Auvergne-Rhône-Alpes,Metropolitan France,,62,,1956,,643350,111.54464081389807,46.064,5.4559999999999995,https://www.data.gouv.fr/fr/organizations/sante-publique-france/datasets-resources.csv,0.5490196078431373,Europe/Paris,iso2:FR-01,iso1:FX,iso2:FR-ARA,417,,186,iso2:FR-01,
"Aisne, Hauts-de-France, Metropolitan France",county,,Aisne,Hauts-de-France,Metropolitan France,,175,,1216,,534490,72.21841719402433,49.4545,3.6075,https://www.data.gouv.fr/fr/organizations/sante-publique-france/datasets-resources.csv,0.5490196078431373,Europe/Paris,iso2:FR-02,iso1:FX,iso2:FR-HDF,875,,425,iso2:FR-02,
"Allier, Auvergne-Rhône-Alpes, Metropolitan France",county,,Allier,Auvergne-Rhône-Alpes,Metropolitan France,,22,,113,,337988,45.832458949216836,46.363,3.1395,https://www.data.gouv.fr/fr/organizations/sante-publique-france/datasets-resources.csv,0.5490196078431373,Europe/Paris,iso2:FR-03,iso1:FX,iso2:FR-ARA,173,,90,iso2:FR-03,
"Alpes-de-Haute-Provence, Provence-Alpes-Côte d'Azur, Metropolitan France",county,,Alpes-de-Haute-Provence,Provence-Alpes-Côte d'Azur,Metropolitan France,,6,,647,,163915,23.386774487645997,44.164,6.2235,https://www.data.gouv.fr/fr/organizations/sante-publique-france/datasets-resources.csv,0.5490196078431373,Europe/Paris,iso2:FR-04,iso1:FX,iso2:FR-PAC,129,,80,iso2:FR-04,
"Hautes-Alpes, Provence-Alpes-Côte d'Azur, Metropolitan France",county,,Hautes-Alpes,Provence-Alpes-Côte d'Azur,Metropolitan France,,6,,105,,141284,24.831381072369222,44.659000000000006,6.2555,https://www.data.gouv.fr/fr/organizations/sante-publique-france/datasets-resources.csv,0.5490196078431373,Europe/Paris,iso2:FR-05,iso1:FX,iso2:FR-PAC,120,,85,iso2:FR-05,
"Maritime Alps, Provence-Alpes-Côte d'Azur, Metropolitan France",county,,Maritime Alps,Provence-Alpes-Côte d'Azur,Metropolitan France,,107,,3719,,1083310,251.61572700751375,43.921499999999995,7.176,https://www.data.gouv.fr/fr/organizations/sante-publique-france/datasets-resources.csv,0.5490196078431373,Europe/Paris,iso2:FR-06,iso1:FX,iso2:FR-PAC,676,,342,iso2:FR-06,
"Ardèche, Auvergne-Rhône-Alpes, Metropolitan France",county,,Ardèche,Auvergne-Rhône-Alpes,Metropolitan France,,51,,492,,325712,58.50318219112237,44.816500000000005,4.3740000000000006,https://www.data.gouv.fr/fr/organizations/sante-publique-france/datasets-resources.csv,0.5490196078431373,Europe/Paris,iso2:FR-07,iso1:FX,iso2:FR-ARA,386,,232,iso2:FR-07,
"Ardennes, Grand Est, Metropolitan France",county,,Ardennes,Grand Est,Metropolitan France,,40,,482,,273579,52.303556362540114,49.6915,4.7105,https://www.data.gouv.fr/fr/organizations/sante-publique-france/datasets-resources.csv,0.5490196078431373,Europe/Paris,iso2:FR-08,iso1:FX,iso2:FR-GES,200,,95,iso2:FR-08,
"Ariège, Occitania, Metropolitan France",county,,Ariège,Occitania,Metropolitan France,,2,,205,,153153,31.135383419479663,42.945,1.4975,https://www.data.gouv.fr/fr/organizations/sante-publique-france/datasets-resources.csv,0.5490196078431373,Europe/Paris,iso2:FR-09,iso1:FX,iso2:FR-OCC,34,,21,iso2:FR-09,
"South Corsica, Corsica, Metropolitan France",county,,South Corsica,Corsica,Metropolitan France,,41,,0,,157249,39.154924480801945,41.858000000000004,8.971,https://www.data.gouv.fr/fr/organizations/sante-publique-france/datasets-resources.csv,0.5490196078431373,Europe/Paris,iso2:FR-2A,iso1:FX,iso2:FR-COR,173,,70,iso2:FR-2A,
"Haute-Corse, Corsica, Metropolitan France",county,,Haute-Corse,Corsica,Metropolitan France,,6,,0,,177689,37.773654104412664,42.4315,9.067,https://www.data.gouv.fr/fr/organizations/sante-publique-france/datasets-resources.csv,0.5490196078431373,Europe/Paris,iso2:FR-2B,iso1:FX,iso2:FR-COR,96,,82,iso2:FR-2B,
"Grand Est, Metropolitan France",state,,,Grand Est,Metropolitan France,,2515,,12376,,5549586,96.26614347321294,48.786500000000004,5.8085,https://www.data.gouv.fr/fr/organizations/sante-publique-france/datasets-resources.csv,0.47058823529411764,Europe/Paris,iso2:FR-GES,iso1:FX,iso2:FR-GES,13060,,6219,,
"Occitania, Metropolitan France",state,,,Occitania,Metropolitan France,,312,,3670,,5845102,79.66343853868433,43.6905,2.2575,https://www.data.gouv.fr/fr/organizations/sante-publique-france/datasets-resources.csv,0.47058823529411764,Europe/Paris,iso2:FR-OCC,iso1:FX,iso2:FR-OCC,2876,,1728,,
"Provence-Alpes-Côte d'Azur, Metropolitan France",state,,,Provence-Alpes-Côte d'Azur,Metropolitan France,,499,,26335,,5030890,157.7070516530789,44.055,5.974,https://www.data.gouv.fr/fr/organizations/sante-publique-france/datasets-resources.csv,0.47058823529411764,Europe/Paris,iso2:FR-PAC,iso1:FX,iso2:FR-PAC,4910,,2834,,
"Normandy, Metropolitan France",state,,,Normandy,Metropolitan France,,283,,6752,,3330478,110.56544007686288,49.122,-0.07850000000000001,https://www.data.gouv.fr/fr/organizations/sante-publique-france/datasets-resources.csv,0.47058823529411764,Europe/Paris,iso2:FR-NOR,iso1:FX,iso2:FR-NOR,1758,,821,,
"Auvergne-Rhône-Alpes, Metropolitan France",state,,,Auvergne-Rhône-Alpes,Metropolitan France,,1062,,8349,,7948287,112.14123177685876,45.4555,4.6225000000000005,https://www.data.gouv.fr/fr/organizations/sante-publique-france/datasets-resources.csv,0.47058823529411764,Europe/Paris,iso2:FR-ARA,iso1:FX,iso2:FR-ARA,7826,,3904,,
"New Aquitaine, Metropolitan France",state,,,New Aquitaine,Metropolitan France,,259,,8305,,5956978,70.30821513881152,44.9785,0.4115,https://www.data.gouv.fr/fr/organizations/sante-publique-france/datasets-resources.csv,0.47058823529411764,Europe/Paris,iso2:FR-NAQ,iso1:FX,iso2:FR-NAQ,2167,,1083,,
"Centre-Loire Valley, Metropolitan France",state,,,Centre-Loire Valley,Metropolitan France,,298,,6457,,2576252,65.22994189134268,47.644000000000005,1.589,https://www.data.gouv.fr/fr/organizations/sante-publique-france/datasets-resources.csv,0.47058823529411764,Europe/Paris,iso2:FR-CVL,iso1:FX,iso2:FR-CVL,2153,,896,,
"Bourgogne-Franche-Comté, Metropolitan France",state,,,Bourgogne-Franche-Comté,Metropolitan France,,677,,5374,,2811423,58.51190225494248,47.275,4.996,https://www.data.gouv.fr/fr/organizations/sante-publique-france/datasets-resources.csv,0.47058823529411764,Europe/Paris,iso2:FR-BFC,iso1:FX,iso2:FR-BFC,3849,,1864,,
"Brittany, Metropolitan France",state,,,Brittany,Metropolitan France,,189,,143,,3318904,120.72007886143128,48.0975,-3.0785,https://www.data.gouv.fr/fr/organizations/sante-publique-france/datasets-resources.csv,0.47058823529411764,Europe/Paris,iso2:FR-BRE,iso1:FX,iso2:FR-BRE,1218,,650,,
"Pays de la Loire, Metropolitan France",state,,,Pays de la Loire,Metropolitan France,,268,,561,,3757600,115.97792293923183,47.417500000000004,-0.8554999999999999,https://www.data.gouv.fr/fr/organizations/sante-publique-france/datasets-resources.csv,0.47058823529411764,Europe/Paris,iso2:FR-PDL,iso1:FX,iso2:FR-PDL,1963,,957,,
"Hauts-de-France, Metropolitan France",state,,,Hauts-de-France,Metropolitan France,,1127,,8522,,6003815,187.95449586244902,49.9645,2.818,https://www.data.gouv.fr/fr/organizations/sante-publique-france/datasets-resources.csv,0.47058823529411764,Europe/Paris,iso2:FR-HDF,iso1:FX,iso2:FR-HDF,6516,,2909,,
"Ile-de-France, Metropolitan France",state,,,Ile-de-France,Metropolitan France,,4942,,40415,,12174880,1012.7210748001833,48.676,2.501,https://www.data.gouv.fr/fr/organizations/sante-publique-france/datasets-resources.csv,0.47058823529411764,Europe/Paris,iso2:FR-IDF,iso1:FX,iso2:FR-IDF,30346,,13095,,
"Corsica, Metropolitan France",state,,,Corsica,Metropolitan France,,47,,,,334938,38.40980162799421,42.18000000000001,9.0475,https://www.data.gouv.fr/fr/organizations/sante-publique-france/datasets-resources.csv,0.39215686274509803,Europe/Paris,iso2:FR-COR,iso1:FX,iso2:FR-COR,269,,152,,
Metropolitan France,country,,,,Metropolitan France,,12478,,127259,,64897954,118.25108453911606,46.2115,2.2095000000000002,https://www.data.gouv.fr/fr/organizations/sante-publique-france/datasets-resources.csv,0.43137254901960786,Europe/Paris,iso1:FX,iso1:FX,,78911,,37112,,
"Cheshire East, England, United Kingdom",county,,Cheshire East,England,United Kingdom,604,,,,,380790,327.61553301142493,53.167,-2.37,https://publicdashacc.blob.core.windows.net/publicdata?restype=container&comp=list,0.4117647058823529,Europe/London,iso2:GB-CHE,iso1:GB,iso2:GB-ENG,,county,,iso2:GB-CHE,
"Cheshire West and Chester, England, United Kingdom",county,,Cheshire West and Chester,England,United Kingdom,575,,,,,340502,367.9374938620834,53.162499999999994,-2.7285000000000004,https://publicdashacc.blob.core.windows.net/publicdata?restype=container&comp=list,0.4117647058823529,Europe/London,iso2:GB-CHW,iso1:GB,iso2:GB-ENG,,county,,iso2:GB-CHW,
"Salford, England, United Kingdom",county,,Salford,England,United Kingdom,464,,,,,254408,2690.9111991890977,53.479,-2.3735,https://publicdashacc.blob.core.windows.net/publicdata?restype=container&comp=list,0.4117647058823529,Europe/London,iso2:GB-SLF,iso1:GB,iso2:GB-ENG,,county,,iso2:GB-SLF,
"Sefton, England, United Kingdom",county,,Sefton,England,United Kingdom,647,,,,,275396,1945.1315812093642,53.568,-2.9925,https://publicdashacc.blob.core.windows.net/publicdata?restype=container&comp=list,0.4117647058823529,Europe/London,iso2:GB-SFT,iso1:GB,iso2:GB-ENG,,county,,iso2:GB-SFT,
"Solihull, England, United Kingdom",county,,Solihull,England,United Kingdom,431,,,,,214909,1251.6993111131474,52.432,-1.7335,https://publicdashacc.blob.core.windows.net/publicdata?restype=container&comp=list,0.4117647058823529,Europe/London,iso2:GB-SOL,iso1:GB,iso2:GB-ENG,,county,,iso2:GB-SOL,
"Bradford, England, United Kingdom",county,,Bradford,England,United Kingdom,571,,,,,537173,1461.9050232619707,53.8445,-1.8504999999999998,https://publicdashacc.blob.core.windows.net/publicdata?restype=container&comp=list,0.4117647058823529,Europe/London,iso2:GB-BRD,iso1:GB,iso2:GB-ENG,,county,,iso2:GB-BRD,
"Wirral, England, United Kingdom",county,,Wirral,England,United Kingdom,788,,,,,323235,2194.4723618931157,53.369,-3.0765000000000002,https://publicdashacc.blob.core.windows.net/publicdata?restype=container&comp=list,0.4117647058823529,Europe/London,iso2:GB-WRL,iso1:GB,iso2:GB-ENG,,county,,iso2:GB-WRL,
"City of Peterborough, England, United Kingdom",county,,City of Peterborough,England,United Kingdom,137,,,,,201041,605.7304401036532,52.5905,-0.2555,https://publicdashacc.blob.core.windows.net/publicdata?restype=container&comp=list,0.4117647058823529,Europe/London,iso2:GB-PTE,iso1:GB,iso2:GB-ENG,,county,,iso2:GB-PTE,
"Suffolk, England, United Kingdom",county,,Suffolk,England,United Kingdom,656,,,,,758556,197.84661889536972,52.241,1.0525,https://publicdashacc.blob.core.windows.net/publicdata?restype=container&comp=list,0.4117647058823529,Europe/London,iso2:GB-SFK,iso1:GB,iso2:GB-ENG,,county,,iso2:GB-SFK,
"Surrey, England, United Kingdom",county,,Surrey,England,United Kingdom,1961,,,,,1189934,713.4144964082443,51.2725,-0.39549999999999996,https://publicdashacc.blob.core.windows.net/publicdata?restype=container&comp=list,0.4117647058823529,Europe/London,iso2:GB-SRY,iso1:GB,iso2:GB-ENG,,county,,iso2:GB-SRY,
"City of London, England, United Kingdom",county,,City of London,England,United Kingdom,13,,,,,8706,3243.9955984329367,51.5145,-0.095,https://publicdashacc.blob.core.windows.net/publicdata?restype=container&comp=list,0.4117647058823529,Europe/London,iso2:GB-LND,iso1:GB,iso2:GB-ENG,,county,,iso2:GB-LND,
"London Borough of Merton, England, United Kingdom",county,,London Borough of Merton,England,United Kingdom,583,,,,,206186,5474.406245817551,51.415000000000006,-0.1895,https://publicdashacc.blob.core.windows.net/publicdata?restype=container&comp=list,0.4117647058823529,Europe/London,iso2:GB-MRT,iso1:GB,iso2:GB-ENG,,county,,iso2:GB-MRT,
"London Borough of Barnet, England, United Kingdom",county,,London Borough of Barnet,England,United Kingdom,1081,,,,,392140,4543.022665604555,51.611999999999995,-0.2165,https://publicdashacc.blob.core.windows.net/publicdata?restype=container&comp=list,0.4117647058823529,Europe/London,iso2:GB-BNE,iso1:GB,iso2:GB-ENG,,county,,iso2:GB-BNE,
"Kingston upon Hull, England, United Kingdom",county,,Kingston upon Hull,England,United Kingdom,258,,,,,256406,3487.562883088055,53.7665,-0.33199999999999996,https://publicdashacc.blob.core.windows.net/publicdata?restype=container&comp=list,0.4117647058823529,Europe/London,iso2:GB-KHL,iso1:GB,iso2:GB-ENG,,county,,iso2:GB-KHL,
"London Borough of Bexley, England, United Kingdom",county,,London Borough of Bexley,England,United Kingdom,513,,,,,247258,3905.4642961827703,51.461,0.1495,https://publicdashacc.blob.core.windows.net/publicdata?restype=container&comp=list,0.4117647058823529,Europe/London,iso2:GB-BEX,iso1:GB,iso2:GB-ENG,,county,,iso2:GB-BEX,
"London Borough of Harrow, England, United Kingdom",county,,London Borough of Harrow,England,United Kingdom,770,,,,,250149,5159.781526330427,51.5955,-0.3355,https://publicdashacc.blob.core.windows.net/publicdata?restype=container&comp=list,0.4117647058823529,Europe/London,iso2:GB-HRW,iso1:GB,iso2:GB-ENG,,county,,iso2:GB-HRW,
"London Borough of Haringey, England, United Kingdom",county,,London Borough of Haringey,England,United Kingdom,487,,,,,270624,8803.970809140883,51.5875,-0.10600000000000001,https://publicdashacc.blob.core.windows.net/publicdata?restype=container&comp=list,0.4117647058823529,Europe/London,iso2:GB-HRY,iso1:GB,iso2:GB-ENG,,county,,iso2:GB-HRY,
"London Borough of Sutton, England, United Kingdom",county,,London Borough of Sutton,England,United Kingdom,589,,,,,204525,4212.288866140715,51.3565,-0.181,https://publicdashacc.blob.core.windows.net/publicdata?restype=container&comp=list,0.4117647058823529,Europe/London,iso2:GB-STN,iso1:GB,iso2:GB-ENG,,county,,iso2:GB-STN,
"Halton, England, United Kingdom",county,,Halton,England,United Kingdom,263,,,,,128432,1601.6497485820694,53.355000000000004,-2.7110000000000003,https://publicdashacc.blob.core.windows.net/publicdata?restype=container&comp=list,0.4117647058823529,Europe/London,iso2:GB-HAL,iso1:GB,iso2:GB-ENG,,county,,iso2:GB-HAL,
"Gateshead, England, United Kingdom",county,,Gateshead,England,United Kingdom,585,,,,,202508,1523.477232533663,54.93,-1.666,https://publicdashacc.blob.core.windows.net/publicdata?restype=container&comp=list,0.4117647058823529,Europe/London,iso2:GB-GAT,iso1:GB,iso2:GB-ENG,,county,,iso2:GB-GAT,
"North East Lincolnshire, England, United Kingdom",county,,North East Lincolnshire,England,United Kingdom,92,,,,,159821,840.234565109564,53.5405,-0.13749999999999998,https://publicdashacc.blob.core.windows.net/publicdata?restype=container&comp=list,0.4117647058823529,Europe/London,iso2:GB-NEL,iso1:GB,iso2:GB-ENG,,county,,iso2:GB-NEL,
"South Gloucestershire, England, United Kingdom",county,,South Gloucestershire,England,United Kingdom,274,,,,,282644,582.4806359601918,51.546499999999995,-2.465,https://publicdashacc.blob.core.windows.net/publicdata?restype=container&comp=list,0.4117647058823529,Europe/London,iso2:GB-SGC,iso1:GB,iso2:GB-ENG,,county,,iso2:GB-SGC,
"Tameside, England, United Kingdom",county,,Tameside,England,United Kingdom,375,,,,,225197,2081.5684121239915,53.4775,-2.0629999999999997,https://publicdashacc.blob.core.windows.net/publicdata?restype=container&comp=list,0.4117647058823529,Europe/London,iso2:GB-TAM,iso1:GB,iso2:GB-ENG,,county,,iso2:GB-TAM,
"Redcar and Cleveland, England, United Kingdom",county,,Redcar and Cleveland,England,United Kingdom,219,,,,,136718,528.4973274676539,54.567499999999995,-0.994,https://publicdashacc.blob.core.windows.net/publicdata?restype=container&comp=list,0.4117647058823529,Europe/London,iso2:GB-RCC,iso1:GB,iso2:GB-ENG,,county,,iso2:GB-RCC,
"Doncaster, England, United Kingdom",county,,Doncaster,England,United Kingdom,266,,,,,310542,550.3746354526445,53.533,-1.107,https://publicdashacc.blob.core.windows.net/publicdata?restype=container&comp=list,0.4117647058823529,Europe/London,iso2:GB-DNC,iso1:GB,iso2:GB-ENG,,county,,iso2:GB-DNC,
United Kingdom,country,,,,United Kingdom,,16509,,,,66022273,270.5768370475989,55.354,-3.4414999999999996,https://publicdashacc.blob.core.windows.net/publicdata?restype=container&comp=list,0.3333333333333333,Europe/London,iso1:GB,iso1:GB,,,county,,,
"Hertfordshire, England, United Kingdom",county,,Hertfordshire,England,United Kingdom,1864,,,,,1184365,727.4803421209347,51.840500000000006,-0.281,https://publicdashacc.blob.core.windows.net/publicdata?restype=container&comp=list,0.4117647058823529,Europe/London,iso2:GB-HRT,iso1:GB,iso2:GB-ENG,,county,,iso2:GB-HRT,
"Coventry, England, United Kingdom",county,,Coventry,England,United Kingdom,515,,,,,366785,3374.9438454829183,52.414500000000004,-1.5190000000000001,https://publicdashacc.blob.core.windows.net/publicdata?restype=container&comp=list,0.4117647058823529,Europe/London,iso2:GB-COV,iso1:GB,iso2:GB-ENG,,county,,iso2:GB-COV,
"York, England, United Kingdom",county,,York,England,United Kingdom,183,,,,,209893,778.676603977432,53.966499999999996,-1.074,https://publicdashacc.blob.core.windows.net/publicdata?restype=container&comp=list,0.4117647058823529,Europe/London,iso2:GB-YOR,iso1:GB,iso2:GB-ENG,,county,,iso2:GB-YOR,
"Birmingham, England, United Kingdom",county,,Birmingham,England,United Kingdom,2310,,,,,1137100,4325.614650569802,52.4955,-1.8935,https://publicdashacc.blob.core.windows.net/publicdata?restype=container&comp=list,0.4117647058823529,Europe/London,iso2:GB-BIR,iso1:GB,iso2:GB-ENG,,county,,iso2:GB-BIR,
"Plymouth, England, United Kingdom",county,,Plymouth,England,United Kingdom,200,,,,,267918,3393.7806737184032,50.3925,-4.1125,https://publicdashacc.blob.core.windows.net/publicdata?restype=container&comp=list,0.4117647058823529,Europe/London,iso2:GB-PLY,iso1:GB,iso2:GB-ENG,,county,,iso2:GB-PLY,
"Luton, England, United Kingdom",county,,Luton,England,United Kingdom,473,,,,,203201,4279.161001315939,51.88849999999999,-0.4305,https://publicdashacc.blob.core.windows.net/publicdata?restype=container&comp=list,0.4117647058823529,Europe/London,iso2:GB-LUT,iso1:GB,iso2:GB-ENG,,county,,iso2:GB-LUT,
"Somerset, England, United Kingdom",county,,Somerset,England,United Kingdom,361,,,,,559399,161.66683984462335,51.073499999999996,-3.0425,https://publicdashacc.blob.core.windows.net/publicdata?restype=container&comp=list,0.4117647058823529,Europe/London,iso2:GB-SOM,iso1:GB,iso2:GB-ENG,,county,,iso2:GB-SOM,
"Shropshire, England, United Kingdom",county,,Shropshire,England,United Kingdom,330,,,,,320274,101.45209547131502,52.6525,-2.7385,https://publicdashacc.blob.core.windows.net/publicdata?restype=container&comp=list,0.4117647058823529,Europe/London,iso2:GB-SHR,iso1:GB,iso2:GB-ENG,,county,,iso2:GB-SHR,
"East Riding of Yorkshire, England, United Kingdom",county,,East Riding of Yorkshire,England,United Kingdom,337,,,,,600259,245.5633600811544,53.896,-0.48300000000000004,https://publicdashacc.blob.core.windows.net/publicdata?restype=container&comp=list,0.4117647058823529,Europe/London,iso2:GB-ERY,iso1:GB,iso2:GB-ENG,,county,,iso2:GB-ERY,
"Wolverhampton, England, United Kingdom",county,,Wolverhampton,England,United Kingdom,581,,,,,250970,3889.467040733236,52.5925,-2.1189999999999998,https://publicdashacc.blob.core.windows.net/publicdata?restype=container&comp=list,0.4117647058823529,Europe/London,iso2:GB-WLV,iso1:GB,iso2:GB-ENG,,county,,iso2:GB-WLV,
"Northumberland, England, United Kingdom",county,,Northumberland,England,United Kingdom,600,,,,,320274,63.48545709030341,55.2975,-2.076,https://publicdashacc.blob.core.windows.net/publicdata?restype=container&comp=list,0.4117647058823529,Europe/London,iso2:GB-NBL,iso1:GB,iso2:GB-ENG,,county,,iso2:GB-NBL,
"Northamptonshire, England, United Kingdom",county,,Northamptonshire,England,United Kingdom,882,,,,,747622,316.08101481947637,52.308499999999995,-0.8370000000000001,https://publicdashacc.blob.core.windows.net/publicdata?restype=container&comp=list,0.4117647058823529,Europe/London,iso2:GB-NTH,iso1:GB,iso2:GB-ENG,,county,,iso2:GB-NTH,
"Herefordshire, England, United Kingdom",county,,Herefordshire,England,United Kingdom,149,,,,,192107,87.42989055978889,52.107,-2.7375,https://publicdashacc.blob.core.windows.net/publicdata?restype=container&comp=list,0.4117647058823529,Europe/London,iso2:GB-HEF,iso1:GB,iso2:GB-ENG,,county,,iso2:GB-HEF,
"London Borough of Croydon, England, United Kingdom",county,,London Borough of Croydon,England,United Kingdom,1187,,,,,385346,4731.897801011885,51.3535,-0.0775,https://publicdashacc.blob.core.windows.net/publicdata?restype=container&comp=list,0.4117647058823529,Europe/London,iso2:GB-CRY,iso1:GB,iso2:GB-ENG,,county,,iso2:GB-CRY,
"Lancashire, England, United Kingdom",county,,Lancashire,England,United Kingdom,2096,,,,,1210053,417.82657143407096,53.8625,-2.5515,https://publicdashacc.blob.core.windows.net/publicdata?restype=container&comp=list,0.4117647058823529,Europe/London,iso2:GB-LAN,iso1:GB,iso2:GB-ENG,,county,,iso2:GB-LAN,
"Gloucestershire, England, United Kingdom",county,,Gloucestershire,England,United Kingdom,934,,,,,633558,235.8259976790471,51.8455,-2.1505,https://publicdashacc.blob.core.windows.net/publicdata?restype=container&comp=list,0.4117647058823529,Europe/London,iso2:GB-GLS,iso1:GB,iso2:GB-ENG,,county,,iso2:GB-GLS,
"London Borough of Southwark, England, United Kingdom",county,,London Borough of Southwark,England,United Kingdom,1089,,,,,317256,12061.800904862866,51.4655,-0.0695,https://publicdashacc.blob.core.windows.net/publicdata?restype=container&comp=list,0.4117647058823529,Europe/London,iso2:GB-SWK,iso1:GB,iso2:GB-ENG,,county,,iso2:GB-SWK,
"Bedford, England, United Kingdom",county,,Bedford,England,United Kingdom,326,,,,,171623,360.0183592615039,52.19,-0.459,https://publicdashacc.blob.core.windows.net/publicdata?restype=container&comp=list,0.4117647058823529,Europe/London,iso2:GB-BDF,iso1:GB,iso2:GB-ENG,,county,,iso2:GB-BDF,
"Stockton-on-Tees, England, United Kingdom",county,,Stockton-on-Tees,England,United Kingdom,238,,,,,197213,919.7560606242083,54.555,-1.3045,https://publicdashacc.blob.core.windows.net/publicdata?restype=container&comp=list,0.4117647058823529,Europe/London,iso2:GB-STT,iso1:GB,iso2:GB-ENG,,county,,iso2:GB-STT,
"Knowsley, England, United Kingdom",county,,Knowsley,England,United Kingdom,402,,,,,149571,1775.7910078803527,53.426,-2.834,https://publicdashacc.blob.core.windows.net/publicdata?restype=container&comp=list,0.4117647058823529,Europe/London,iso2:GB-KWL,iso1:GB,iso2:GB-ENG,,county,,iso2:GB-KWL,
"Scotland, United Kingdom",state,,,Scotland,United Kingdom,,903,,,,5404700,68.69804657978987,57.739000000000004,-4.6899999999999995,https://publicdashacc.blob.core.windows.net/publicdata?restype=container&comp=list,0.37254901960784315,Europe/London,iso2:GB-SCT,iso1:GB,iso2:GB-SCT,,county,,,
"Wales, United Kingdom",state,,,Wales,United Kingdom,,584,,,,3113000,149.57613601138684,52.4055,-4.16,https://publicdashacc.blob.core.windows.net/publicdata?restype=container&comp=list,0.37254901960784315,Europe/London,iso2:GB-WLS,iso1:GB,iso2:GB-WLS,,county,,,
"Northern Ireland, United Kingdom",state,,,Northern Ireland,United Kingdom,,194,,,,1862100,131.99914388586893,54.666,-6.8025,https://publicdashacc.blob.core.windows.net/publicdata?restype=container&comp=list,0.37254901960784315,Europe/London,iso2:GB-NIR,iso1:GB,iso2:GB-NIR,,county,,,
"Nottinghamshire, England, United Kingdom",county,,Nottinghamshire,England,United Kingdom,868,,,,,823126,393.05581985100963,53.1475,-1.0095,https://publicdashacc.blob.core.windows.net/publicdata?restype=container&comp=list,0.4117647058823529,Europe/London,iso2:GB-NTT,iso1:GB,iso2:GB-ENG,,county,,iso2:GB-NTT,
"Hampshire, England, United Kingdom",county,,Hampshire,England,United Kingdom,2159,,,,,1376316,374.27928115955626,51.0495,-1.3465,https://publicdashacc.blob.core.windows.net/publicdata?restype=container&comp=list,0.4117647058823529,Europe/London,iso2:GB-HAM,iso1:GB,iso2:GB-ENG,,county,,iso2:GB-HAM,
"West Sussex, England, United Kingdom",county,,West Sussex,England,United Kingdom,867,,,,,858852,429.4092210584345,50.947,-0.45649999999999996,https://publicdashacc.blob.core.windows.net/publicdata?restype=container&comp=list,0.4117647058823529,Europe/London,iso2:GB-WSX,iso1:GB,iso2:GB-ENG,,county,,iso2:GB-WSX,
"Buckinghamshire, England, United Kingdom",county,,Buckinghamshire,England,United Kingdom,625,,,,,540059,340.6999055045149,51.7875,-0.7995000000000001,https://publicdashacc.blob.core.windows.net/publicdata?restype=container&comp=list,0.4117647058823529,Europe/London,iso2:GB-BKM,iso1:GB,iso2:GB-ENG,,county,,iso2:GB-BKM,
"Derby, England, United Kingdom",county,,Derby,England,United Kingdom,405,,,,,255394,3459.1880255054266,52.908,-1.47,https://publicdashacc.blob.core.windows.net/publicdata?restype=container&comp=list,0.4117647058823529,Europe/London,iso2:GB-DER,iso1:GB,iso2:GB-ENG,,county,,iso2:GB-DER,
"North Somerset, England, United Kingdom",county,,North Somerset,England,United Kingdom,168,,,,,213919,564.4636756245299,51.402,-2.8514999999999997,https://publicdashacc.blob.core.windows.net/publicdata?restype=container&comp=list,0.4117647058823529,Europe/London,iso2:GB-NSM,iso1:GB,iso2:GB-ENG,,county,,iso2:GB-NSM,
"London Borough of Bromley, England, United Kingdom",county,,London Borough of Bromley,England,United Kingdom,905,,,,,331096,2227.760317056481,51.3675,0.042,https://publicdashacc.blob.core.windows.net/publicdata?restype=container&comp=list,0.4117647058823529,Europe/London,iso2:GB-BRY,iso1:GB,iso2:GB-ENG,,county,,iso2:GB-BRY,
"London Borough of Hackney, England, United Kingdom",county,,London Borough of Hackney,England,United Kingdom,555,,,,,279665,12107.629656861945,51.54900000000001,-0.0605,https://publicdashacc.blob.core.windows.net/publicdata?restype=container&comp=list,0.4117647058823529,Europe/London,iso2:GB-HCK,iso1:GB,iso2:GB-ENG,,county,,iso2:GB-HCK,
"Wigan, England, United Kingdom",county,,Wigan,England,United Kingdom,437,,,,,326088,1705.2325638510204,53.525,-2.573,https://publicdashacc.blob.core.windows.net/publicdata?restype=container&comp=list,0.4117647058823529,Europe/London,iso2:GB-WGN,iso1:GB,iso2:GB-ENG,,county,,iso2:GB-WGN,
"Milton Keynes, England, United Kingdom",county,,Milton Keynes,England,United Kingdom,390,,,,,268607,850.7882411738011,52.082,-0.7395,https://publicdashacc.blob.core.windows.net/publicdata?restype=container&comp=list,0.4117647058823529,Europe/London,iso2:GB-MIK,iso1:GB,iso2:GB-ENG,,county,,iso2:GB-MIK,
"Darlington, England, United Kingdom",county,,Darlington,England,United Kingdom,187,,,,,106566,526.8801096803164,54.546,-1.56,https://publicdashacc.blob.core.windows.net/publicdata?restype=container&comp=list,0.4117647058823529,Europe/London,iso2:GB-DAL,iso1:GB,iso2:GB-ENG,,county,,iso2:GB-DAL,
"Bolton, England, United Kingdom",county,,Bolton,England,United Kingdom,559,,,,,285372,2099.154974208496,53.584500000000006,-2.482,https://publicdashacc.blob.core.windows.net/publicdata?restype=container&comp=list,0.4117647058823529,Europe/London,iso2:GB-BOL,iso1:GB,iso2:GB-ENG,,county,,iso2:GB-BOL,
"Telford and Wrekin, England, United Kingdom",county,,Telford and Wrekin,England,United Kingdom,167,,,,,177799,613.349217917568,52.721000000000004,-2.4894999999999996,https://publicdashacc.blob.core.windows.net/publicdata?restype=container&comp=list,0.4117647058823529,Europe/London,iso2:GB-TFW,iso1:GB,iso2:GB-ENG,,county,,iso2:GB-TFW,
"West Berkshire, England, United Kingdom",county,,West Berkshire,England,United Kingdom,206,,,,,158527,229.80778716167197,51.444500000000005,-1.2854999999999999,https://publicdashacc.blob.core.windows.net/publicdata?restype=container&comp=list,0.4117647058823529,Europe/London,iso2:GB-WBK,iso1:GB,iso2:GB-ENG,,county,,iso2:GB-WBK,
"Rochdale, England, United Kingdom",county,,Rochdale,England,United Kingdom,324,,,,,220001,1385.0805115678015,53.6065,-2.1494999999999997,https://publicdashacc.blob.core.windows.net/publicdata?restype=container&comp=list,0.4117647058823529,Europe/London,iso2:GB-RCH,iso1:GB,iso2:GB-ENG,,county,,iso2:GB-RCH,
"Portsmouth, England, United Kingdom",county,,Portsmouth,England,United Kingdom,236,,,,,248440,8364.098003982204,50.804,-1.0955,https://publicdashacc.blob.core.windows.net/publicdata?restype=container&comp=list,0.4117647058823529,Europe/London,iso2:GB-POR,iso1:GB,iso2:GB-ENG,,county,,iso2:GB-POR,
"City of Leicester, England, United Kingdom",county,,City of Leicester,England,United Kingdom,475,,,,,355218,5095.76210011238,52.6365,-1.1320000000000001,https://publicdashacc.blob.core.windows.net/publicdata?restype=container&comp=list,0.4117647058823529,Europe/London,iso2:GB-LCE,iso1:GB,iso2:GB-ENG,,county,,iso2:GB-LCE,
"Cornwall, England, United Kingdom",county,,Cornwall,England,United Kingdom,400,,,,,568210,157.33973550439273,50.444,-4.957000000000001,https://publicdashacc.blob.core.windows.net/publicdata?restype=container&comp=list,0.4117647058823529,Europe/London,iso2:GB-CON,iso1:GB,iso2:GB-ENG,,county,,iso2:GB-CON,
"Cumbria, England, United Kingdom",county,,Cumbria,England,United Kingdom,1496,,,,,498888,73.18676013362382,54.617000000000004,-2.9044999999999996,https://publicdashacc.blob.core.windows.net/publicdata?restype=container&comp=list,0.4117647058823529,Europe/London,iso2:GB-CMA,iso1:GB,iso2:GB-ENG,,county,,iso2:GB-CMA,
"Oxfordshire, England, United Kingdom",county,,Oxfordshire,England,United Kingdom,1202,,,,,687524,264.31063503773225,51.814,-1.286,https://publicdashacc.blob.core.windows.net/publicdata?restype=container&comp=list,0.4117647058823529,Europe/London,iso2:GB-OXF,iso1:GB,iso2:GB-ENG,,county,,iso2:GB-OXF,
"North Yorkshire, England, United Kingdom",county,,North Yorkshire,England,United Kingdom,629,,,,,614505,76.38419231744628,54.090500000000006,-1.3880000000000001,https://publicdashacc.blob.core.windows.net/publicdata?restype=container&comp=list,0.4117647058823529,Europe/London,iso2:GB-NYK,iso1:GB,iso2:GB-ENG,,county,,iso2:GB-NYK,
"Lincolnshire, England, United Kingdom",county,,Lincolnshire,England,United Kingdom,585,,,,,755833,127.37026852252228,53.1265,-0.22450000000000003,https://publicdashacc.blob.core.windows.net/publicdata?restype=container&comp=list,0.4117647058823529,Europe/London,iso2:GB-LIN,iso1:GB,iso2:GB-ENG,,county,,iso2:GB-LIN,
"Essex, England, United Kingdom",county,,Essex,England,United Kingdom,1892,,,,,1477764,431.00717495338097,51.8005,0.639,https://publicdashacc.blob.core.windows.net/publicdata?restype=container&comp=list,0.4117647058823529,Europe/London,iso2:GB-ESS,iso1:GB,iso2:GB-ENG,,county,,iso2:GB-ESS,
